<kml xmlns="http://www.opengis.net/kml/2.2" xmlns:gx="http://www.google.com/kml/ext/2.2" xmlns:xsi="http://www.w3.org/2001/XMLSchema-instance" xsi:schemaLocation="http://www.opengis.net/kml/2.2 https://developers.google.com/kml/schema/kml22gx.xsd"><Document><Placemark><name>WILSON</name><ExtendedData><Data name="locId"><value>GA03</value></Data></ExtendedData><Point><coordinates>-85.1996752777778,34.8695213888889</coordinates></Point></Placemark><Placemark><name>WARREN FLD</name><ExtendedData><Data name="locId"><value>3GA3</value></Data></ExtendedData><Point><coordinates>-85.43750000000001,34.871111111111105</coordinates></Point></Placemark><Placemark><name>TWIN FORKS</name><ExtendedData><Data name="locId"><value>GA77</value></Data></ExtendedData><Point><coordinates>-85.2503611111111,34.87208333333331</coordinates></Point></Placemark><Placemark><name>LOOKOUT MOUNTAIN</name><ExtendedData><Data name="locId"><value>0GE3</value></Data></ExtendedData><Point><coordinates>-85.4604055555556,34.902802777777794</coordinates></Point></Placemark><Placemark><name>PETTY FARMS</name><ExtendedData><Data name="locId"><value>2GE7</value></Data></ExtendedData><Point><coordinates>-84.7791666666667,34.9580555555556</coordinates></Point></Placemark><Placemark><name>R M HARRIS</name><ExtendedData><Data name="locId"><value>4GA4</value></Data></ExtendedData><Point><coordinates>-84.75466055555562,34.8467461111111</coordinates></Point></Placemark><Placemark><name>ROSTEX</name><ExtendedData><Data name="locId"><value>55GE</value></Data></ExtendedData><Point><coordinates>-84.7416052777778,34.9806322222222</coordinates></Point></Placemark><Placemark><name>GILMER COUNTY</name><ExtendedData><Data name="locId"><value>49A</value></Data></ExtendedData><Point><coordinates>-84.5265555555556,34.62819444444439</coordinates></Point></Placemark><Placemark><name>BLUE RIDGE SKYPORT</name><ExtendedData><Data name="locId"><value>57GA</value></Data></ExtendedData><Point><coordinates>-84.3830111111111,34.85766944444438</coordinates></Point></Placemark><Placemark><name>GEORGIA MOUNTAIN</name><ExtendedData><Data name="locId"><value>1GE1</value></Data></ExtendedData><Point><coordinates>-84.3547222222222,34.82805555555562</coordinates></Point></Placemark><Placemark><name>PIEDMONT MOUNTAINSIDE FSED</name><ExtendedData><Data name="locId"><value>43GE</value></Data></ExtendedData><Point><coordinates>-84.4897581388889,34.662637361111095</coordinates></Point></Placemark><Placemark><name>NORTHSIDE HOSPITAL-CHEROKEE</name><ExtendedData><Data name="locId"><value>8GE8</value></Data></ExtendedData><Point><coordinates>-84.4911722222222,34.24676666666669</coordinates></Point></Placemark><Placemark><name>PICKENS COUNTY</name><ExtendedData><Data name="locId"><value>JZP</value></Data></ExtendedData><Point><coordinates>-84.4572222222222,34.4534722222222</coordinates></Point></Placemark><Placemark><name>CHEROKEE COUNTY RGNL</name><ExtendedData><Data name="locId"><value>CNI</value></Data></ExtendedData><Point><coordinates>-84.4221225,34.31219611111112</coordinates></Point></Placemark><Placemark><name>MAC</name><ExtendedData><Data name="locId"><value>6GA7</value></Data></ExtendedData><Point><coordinates>-84.29723888888888,34.20686111111108</coordinates></Point></Placemark><Placemark><name>HAWKS RIDGE</name><ExtendedData><Data name="locId"><value>22GE</value></Data></ExtendedData><Point><coordinates>-84.2781666666667,34.2577861111111</coordinates></Point></Placemark><Placemark><name>AIR ACRES</name><ExtendedData><Data name="locId"><value>5GA4</value></Data></ExtendedData><Point><coordinates>-84.4485397222222,34.105931388888905</coordinates></Point></Placemark><Placemark><name>WELLSTAR KENNESTONE HOSPITAL</name><ExtendedData><Data name="locId"><value>65GA</value></Data></ExtendedData><Point><coordinates>-84.32113894444439,34.062963527777825</coordinates></Point></Placemark><Placemark><name>FLYING G RANCH</name><ExtendedData><Data name="locId"><value>86GA</value></Data></ExtendedData><Point><coordinates>-85.06105972222221,34.86785555555558</coordinates></Point></Placemark><Placemark><name>HAMILTON MEDICAL CENTER</name><ExtendedData><Data name="locId"><value>GA70</value></Data></ExtendedData><Point><coordinates>-84.98094444444442,34.78832500000003</coordinates></Point></Placemark><Placemark><name>PRATERMILL FLIGHT PARK</name><ExtendedData><Data name="locId"><value>GA72</value></Data></ExtendedData><Point><coordinates>-84.88972222222219,34.8816666666667</coordinates></Point></Placemark><Placemark><name>DALTON MUNI</name><ExtendedData><Data name="locId"><value>DNN</value></Data></ExtendedData><Point><coordinates>-84.8702413888889,34.722938888888905</coordinates></Point></Placemark><Placemark><name>JENNYS LANDING</name><ExtendedData><Data name="locId"><value>11GA</value></Data></ExtendedData><Point><coordinates>-85.0680277777778,34.702611111111096</coordinates></Point></Placemark><Placemark><name>RICHARD B RUSSELL RGNL - J H TOWERS FLD</name><ExtendedData><Data name="locId"><value>RMG</value></Data></ExtendedData><Point><coordinates>-85.1585744444445,34.35163750000001</coordinates></Point></Placemark><Placemark><name>RIVERSIDE</name><ExtendedData><Data name="locId"><value>22GA</value></Data></ExtendedData><Point><coordinates>-85.05439111111109,34.4292552777778</coordinates></Point></Placemark><Placemark><name>TOM B DAVID FLD</name><ExtendedData><Data name="locId"><value>CZL</value></Data></ExtendedData><Point><coordinates>-84.9391552777778,34.455402500000005</coordinates></Point></Placemark><Placemark><name>CURTIS PARKWAY NORTH</name><ExtendedData><Data name="locId"><value>99GA</value></Data></ExtendedData><Point><coordinates>-84.93438694444448,34.4511994444444</coordinates></Point></Placemark><Placemark><name>ADVENTHEALTH GORDON</name><ExtendedData><Data name="locId"><value>GE02</value></Data></ExtendedData><Point><coordinates>-84.9277308333333,34.5103408333333</coordinates></Point></Placemark><Placemark><name>SHANNON FLIGHT STRIP</name><ExtendedData><Data name="locId"><value>2GA8</value></Data></ExtendedData><Point><coordinates>-85.0768916666667,34.3498130555556</coordinates></Point></Placemark><Placemark><name>REDMOND RGNL MEDICAL CENTER</name><ExtendedData><Data name="locId"><value>GA12</value></Data></ExtendedData><Point><coordinates>-85.19396388888889,34.2775888888889</coordinates></Point></Placemark><Placemark><name>FLOYD COUNTY SHERIFFS OFFICE</name><ExtendedData><Data name="locId"><value>GE88</value></Data></ExtendedData><Point><coordinates>-85.1415583333333,34.2809222222222</coordinates></Point></Placemark><Placemark><name>FMC</name><ExtendedData><Data name="locId"><value>GE13</value></Data></ExtendedData><Point><coordinates>-85.1803222222222,34.2599972222222</coordinates></Point></Placemark><Placemark><name>POLK COUNTY/CORNELIUS MOORE FLD</name><ExtendedData><Data name="locId"><value>4A4</value></Data></ExtendedData><Point><coordinates>-85.1447588888889,34.01852916666668</coordinates></Point></Placemark><Placemark><name>CARTERSVILLE</name><ExtendedData><Data name="locId"><value>VPC</value></Data></ExtendedData><Point><coordinates>-84.8487066666667,34.1231475</coordinates></Point></Placemark><Placemark><name>DAWSON FLD</name><ExtendedData><Data name="locId"><value>53GA</value></Data></ExtendedData><Point><coordinates>-85.2569863611111,34.1689589722222</coordinates></Point></Placemark><Placemark><name>ETOWAH FIELDS</name><ExtendedData><Data name="locId"><value>02GE</value></Data></ExtendedData><Point><coordinates>-84.92444444444439,34.17527777777782</coordinates></Point></Placemark><Placemark><name>ETOWAH BEND</name><ExtendedData><Data name="locId"><value>8GA7</value></Data></ExtendedData><Point><coordinates>-84.97716638888892,34.202039722222196</coordinates></Point></Placemark><Placemark><name>BROWNSTONE AIRPARK</name><ExtendedData><Data name="locId"><value>GE61</value></Data></ExtendedData><Point><coordinates>-85.3839088055556,34.102513638888894</coordinates></Point></Placemark><Placemark><name>MIKE ROBERSON</name><ExtendedData><Data name="locId"><value>28GE</value></Data></ExtendedData><Point><coordinates>-85.4166666666667,34.2</coordinates></Point></Placemark><Placemark><name>FLYLANDER FARM</name><ExtendedData><Data name="locId"><value>47GE</value></Data></ExtendedData><Point><coordinates>-85.30437399999998,34.48216799999999</coordinates></Point></Placemark><Placemark><name>WYATT</name><ExtendedData><Data name="locId"><value>GA23</value></Data></ExtendedData><Point><coordinates>-85.38388888888889,34.57833333333329</coordinates></Point></Placemark><Placemark><name>HOGJOWL</name><ExtendedData><Data name="locId"><value>GE11</value></Data></ExtendedData><Point><coordinates>-85.4619444444444,34.605833333333294</coordinates></Point></Placemark><Placemark><name>GIBSON FLD</name><ExtendedData><Data name="locId"><value>GE05</value></Data></ExtendedData><Point><coordinates>-85.3430555555556,34.61555555555559</coordinates></Point></Placemark><Placemark><name>BARWICK LAFAYETTE</name><ExtendedData><Data name="locId"><value>9A5</value></Data></ExtendedData><Point><coordinates>-85.29046416666668,34.6880172222222</coordinates></Point></Placemark><Placemark><name>STAKELY</name><ExtendedData><Data name="locId"><value>14GE</value></Data></ExtendedData><Point><coordinates>-85.4636055555556,34.790822222222204</coordinates></Point></Placemark><Placemark><name>LITTLE</name><ExtendedData><Data name="locId"><value>26GA</value></Data></ExtendedData><Point><coordinates>-85.2867436111111,34.40260733333331</coordinates></Point></Placemark><Placemark><name>AIKEN FLD</name><ExtendedData><Data name="locId"><value>85GA</value></Data></ExtendedData><Point><coordinates>-83.731005,34.17232833333327</coordinates></Point></Placemark><Placemark><name>BARROW MEDICAL CENTER</name><ExtendedData><Data name="locId"><value>59GA</value></Data></ExtendedData><Point><coordinates>-83.7084055555556,34.0082305555556</coordinates></Point></Placemark><Placemark><name>B TREE FARMS</name><ExtendedData><Data name="locId"><value>97GA</value></Data></ExtendedData><Point><coordinates>-83.67211444444442,34.26816000000001</coordinates></Point></Placemark><Placemark><name>JACKSON COUNTY</name><ExtendedData><Data name="locId"><value>JCA</value></Data></ExtendedData><Point><coordinates>-83.5616944444444,34.176138888888886</coordinates></Point></Placemark><Placemark><name>FRANKLIN-HART</name><ExtendedData><Data name="locId"><value>18A</value></Data></ExtendedData><Point><coordinates>-83.13080555555558,34.340361111111065</coordinates></Point></Placemark><Placemark><name>AIRNAUTIQUE, INC</name><ExtendedData><Data name="locId"><value>0GA2</value></Data></ExtendedData><Point><coordinates>-82.9454861111111,34.38226944444439</coordinates></Point></Placemark><Placemark><name>BROAD RIVER AIR PARK</name><ExtendedData><Data name="locId"><value>3GE3</value></Data></ExtendedData><Point><coordinates>-83.1804444444444,34.412416666666715</coordinates></Point></Placemark><Placemark><name>MUSTANG FLD</name><ExtendedData><Data name="locId"><value>0GA1</value></Data></ExtendedData><Point><coordinates>-82.8970872222222,34.47788055555557</coordinates></Point></Placemark><Placemark><name>ST MARYS HEALTH CARE SYSTEMS</name><ExtendedData><Data name="locId"><value>7GA0</value></Data></ExtendedData><Point><coordinates>-83.4070611111111,33.9484611111111</coordinates></Point></Placemark><Placemark><name>ATHENS/BEN EPPS</name><ExtendedData><Data name="locId"><value>AHN</value></Data></ExtendedData><Point><coordinates>-83.3259141666667,33.94864027777777</coordinates></Point></Placemark><Placemark><name>BEAVER CREEK LODGE</name><ExtendedData><Data name="locId"><value>25GE</value></Data></ExtendedData><Point><coordinates>-83.0392666666667,33.997377777777814</coordinates></Point></Placemark><Placemark><name>ELBERT COUNTY-PATZ FLD</name><ExtendedData><Data name="locId"><value>EBA</value></Data></ExtendedData><Point><coordinates>-82.81749250000001,34.095402500000006</coordinates></Point></Placemark><Placemark><name>DOUG BOLTON FLD</name><ExtendedData><Data name="locId"><value>02GA</value></Data></ExtendedData><Point><coordinates>-83.42904888888889,34.20260805555557</coordinates></Point></Placemark><Placemark><name>HUDSON RIVER LANDING</name><ExtendedData><Data name="locId"><value>33GA</value></Data></ExtendedData><Point><coordinates>-83.2866666666667,34.260000000000005</coordinates></Point></Placemark><Placemark><name>HANNAH CREEK</name><ExtendedData><Data name="locId"><value>GE72</value></Data></ExtendedData><Point><coordinates>-83.1531007222222,34.23555694444438</coordinates></Point></Placemark><Placemark><name>PAPAS PLACE</name><ExtendedData><Data name="locId"><value>30GE</value></Data></ExtendedData><Point><coordinates>-83.1946267222222,34.19401913888893</coordinates></Point></Placemark><Placemark><name>FLYING B FARM</name><ExtendedData><Data name="locId"><value>60GE</value></Data></ExtendedData><Point><coordinates>-83.2370691666667,33.9436668888889</coordinates></Point></Placemark><Placemark><name>MOUNTAIN AIRPARK</name><ExtendedData><Data name="locId"><value>0GE5</value></Data></ExtendedData><Point><coordinates>-83.7135127777778,34.5617633333333</coordinates></Point></Placemark><Placemark><name>KING SKY RANCH</name><ExtendedData><Data name="locId"><value>GA67</value></Data></ExtendedData><Point><coordinates>-83.5929494444444,34.768149444444376</coordinates></Point></Placemark><Placemark><name>HABERSHAM COUNTY</name><ExtendedData><Data name="locId"><value>AJR</value></Data></ExtendedData><Point><coordinates>-83.55666472222218,34.4998516666667</coordinates></Point></Placemark><Placemark><name>HEAVEN'S LANDING</name><ExtendedData><Data name="locId"><value>GE99</value></Data></ExtendedData><Point><coordinates>-83.459425,34.914183333333284</coordinates></Point></Placemark><Placemark><name>BIG CREEK FLYING RANCH</name><ExtendedData><Data name="locId"><value>GA18</value></Data></ExtendedData><Point><coordinates>-83.4096063888889,34.8328705555556</coordinates></Point></Placemark><Placemark><name>TOCCOA RG LETOURNEAU FLD</name><ExtendedData><Data name="locId"><value>TOC</value></Data></ExtendedData><Point><coordinates>-83.29637166666669,34.592811666666705</coordinates></Point></Placemark><Placemark><name>ROCKIN R</name><ExtendedData><Data name="locId"><value>GA30</value></Data></ExtendedData><Point><coordinates>-83.42428055555561,34.67591666666668</coordinates></Point></Placemark><Placemark><name>ARRENDALE FOREST</name><ExtendedData><Data name="locId"><value>GA45</value></Data></ExtendedData><Point><coordinates>-83.50109999999998,34.66018055555561</coordinates></Point></Placemark><Placemark><name>BEAVER TRAIL</name><ExtendedData><Data name="locId"><value>GA40</value></Data></ExtendedData><Point><coordinates>-83.96850000000002,34.25425</coordinates></Point></Placemark><Placemark><name>LATHAM CREEK</name><ExtendedData><Data name="locId"><value>14GA</value></Data></ExtendedData><Point><coordinates>-83.9435166666667,34.3364872222222</coordinates></Point></Placemark><Placemark><name>THE FLYING W RANCH</name><ExtendedData><Data name="locId"><value>GA01</value></Data></ExtendedData><Point><coordinates>-83.9358333333333,34.1769444444444</coordinates></Point></Placemark><Placemark><name>LEE GILMER MEML</name><ExtendedData><Data name="locId"><value>GVL</value></Data></ExtendedData><Point><coordinates>-83.8302261111111,34.27262638888891</coordinates></Point></Placemark><Placemark><name>NGHS GAINESVILLE</name><ExtendedData><Data name="locId"><value>74GE</value></Data></ExtendedData><Point><coordinates>-83.8162277777778,34.30596111111112</coordinates></Point></Placemark><Placemark><name>LANIER PARK HOSPITAL</name><ExtendedData><Data name="locId"><value>38GA</value></Data></ExtendedData><Point><coordinates>-83.7958666666667,34.31943333333329</coordinates></Point></Placemark><Placemark><name>LUMPKIN COUNTY-WIMPYS</name><ExtendedData><Data name="locId"><value>9A0</value></Data></ExtendedData><Point><coordinates>-84.0199583333333,34.58309166666669</coordinates></Point></Placemark><Placemark><name>HIGH VALLEY AIRPARK</name><ExtendedData><Data name="locId"><value>GA87</value></Data></ExtendedData><Point><coordinates>-84.0126911111111,34.6981455555556</coordinates></Point></Placemark><Placemark><name>BLAIRSVILLE</name><ExtendedData><Data name="locId"><value>DZJ</value></Data></ExtendedData><Point><coordinates>-83.99732,34.8544313888889</coordinates></Point></Placemark><Placemark><name>UNION GENERAL HOSPITAL</name><ExtendedData><Data name="locId"><value>1GA3</value></Data></ExtendedData><Point><coordinates>-83.9619102777778,34.88530847222219</coordinates></Point></Placemark><Placemark><name>NGMC LUMPKIN HOSPITAL</name><ExtendedData><Data name="locId"><value>03GE</value></Data></ExtendedData><Point><coordinates>-83.9712194444444,34.459616666666705</coordinates></Point></Placemark><Placemark><name>STONEY POINT FLD</name><ExtendedData><Data name="locId"><value>6GA0</value></Data></ExtendedData><Point><coordinates>-84.19936249999999,34.13259777777779</coordinates></Point></Placemark><Placemark><name>ELLIOTT FLD</name><ExtendedData><Data name="locId"><value>09GE</value></Data></ExtendedData><Point><coordinates>-84.18037083333328,34.45841805555558</coordinates></Point></Placemark><Placemark><name>APPLE 1</name><ExtendedData><Data name="locId"><value>11GE</value></Data></ExtendedData><Point><coordinates>-84.06635000000001,34.26034722222221</coordinates></Point></Placemark><Placemark><name>EBENEEZER</name><ExtendedData><Data name="locId"><value>4GA9</value></Data></ExtendedData><Point><coordinates>-84.05713222222221,34.24232027777779</coordinates></Point></Placemark><Placemark><name>BUFORD PRECINCT</name><ExtendedData><Data name="locId"><value>35GA</value></Data></ExtendedData><Point><coordinates>-84.01214722222218,34.09874999999998</coordinates></Point></Placemark><Placemark><name>EMORY JOHNS CREEK HOSPITAL</name><ExtendedData><Data name="locId"><value>GE28</value></Data></ExtendedData><Point><coordinates>-84.1775,34.06749999999997</coordinates></Point></Placemark><Placemark><name>NORTHSIDE HOSPITAL FORSYTH</name><ExtendedData><Data name="locId"><value>2GA4</value></Data></ExtendedData><Point><coordinates>-84.1401666666667,34.179833333333306</coordinates></Point></Placemark><Placemark><name>MERRILL AHP</name><ExtendedData><Data name="locId"><value>7A7</value></Data></ExtendedData><Point><coordinates>-84.1065433333333,34.626731666666686</coordinates></Point></Placemark><Placemark><name>COBB GENERAL HOSPITAL</name><ExtendedData><Data name="locId"><value>34GA</value></Data></ExtendedData><Point><coordinates>-84.60668055555561,33.857200000000006</coordinates></Point></Placemark><Placemark><name>COBB COUNTY INTL/MCCOLLUM FLD</name><ExtendedData><Data name="locId"><value>RYY</value></Data></ExtendedData><Point><coordinates>-84.5970277777778,34.01316666666669</coordinates></Point></Placemark><Placemark><name>KENNESTONE</name><ExtendedData><Data name="locId"><value>56GA</value></Data></ExtendedData><Point><coordinates>-84.54921594444441,33.96851155555561</coordinates></Point></Placemark><Placemark><name>FULTON COUNTY EXEC/CHARLIE BROWN FLD</name><ExtendedData><Data name="locId"><value>FTY</value></Data></ExtendedData><Point><coordinates>-84.5207075277778,33.7801192222222</coordinates></Point></Placemark><Placemark><name>LEGACY MEDICAL CENTER</name><ExtendedData><Data name="locId"><value>9GE8</value></Data></ExtendedData><Point><coordinates>-84.5125472222222,33.7409055555556</coordinates></Point></Placemark><Placemark><name>SMYRNA HOSPITAL</name><ExtendedData><Data name="locId"><value>40GA</value></Data></ExtendedData><Point><coordinates>-84.5124305555556,33.85846388888888</coordinates></Point></Placemark><Placemark><name>DOBBINS ARB</name><ExtendedData><Data name="locId"><value>MGE</value></Data></ExtendedData><Point><coordinates>-84.51424722222221,33.91444166666672</coordinates></Point></Placemark><Placemark><name>LYONS LANDING</name><ExtendedData><Data name="locId"><value>5GA2</value></Data></ExtendedData><Point><coordinates>-84.91107361111112,33.572923611111094</coordinates></Point></Placemark><Placemark><name>KOLIBRI</name><ExtendedData><Data name="locId"><value>6GA5</value></Data></ExtendedData><Point><coordinates>-84.9068841666667,33.5781663888889</coordinates></Point></Placemark><Placemark><name>RAYWORTH LANDING</name><ExtendedData><Data name="locId"><value>5GA9</value></Data></ExtendedData><Point><coordinates>-84.9148611111111,33.60125000000001</coordinates></Point></Placemark><Placemark><name>DIAMOND R RANCH</name><ExtendedData><Data name="locId"><value>3GA5</value></Data></ExtendedData><Point><coordinates>-84.93883000000001,33.6370538888889</coordinates></Point></Placemark><Placemark><name>LUCKY LAIRDS LANDING</name><ExtendedData><Data name="locId"><value>81GA</value></Data></ExtendedData><Point><coordinates>-84.90494,33.64094277777781</coordinates></Point></Placemark><Placemark><name>DEKALB POLICE DEPT</name><ExtendedData><Data name="locId"><value>GA58</value></Data></ExtendedData><Point><coordinates>-84.2415383333333,33.776797500000015</coordinates></Point></Placemark><Placemark><name>EMORY UNIVERSITY HOSPITAL</name><ExtendedData><Data name="locId"><value>7GA8</value></Data></ExtendedData><Point><coordinates>-84.3225861111111,33.79191944444442</coordinates></Point></Placemark><Placemark><name>CHILDREN'S HEALTHCARE OF ATLANTA-EGLESTON</name><ExtendedData><Data name="locId"><value>60GA</value></Data></ExtendedData><Point><coordinates>-84.3192833333333,33.794083333333305</coordinates></Point></Placemark><Placemark><name>WSB-TV</name><ExtendedData><Data name="locId"><value>7GA1</value></Data></ExtendedData><Point><coordinates>-84.3864472222222,33.799438888888915</coordinates></Point></Placemark><Placemark><name>BRIDGE BUILDING</name><ExtendedData><Data name="locId"><value>GA66</value></Data></ExtendedData><Point><coordinates>-84.39515,33.80966944444444</coordinates></Point></Placemark><Placemark><name>WANF-TV</name><ExtendedData><Data name="locId"><value>31GA</value></Data></ExtendedData><Point><coordinates>-84.4010527777778,33.7873527777778</coordinates></Point></Placemark><Placemark><name>ROLLINS</name><ExtendedData><Data name="locId"><value>GA53</value></Data></ExtendedData><Point><coordinates>-84.3718705555555,33.8151047222222</coordinates></Point></Placemark><Placemark><name>PIEDMONT ATLANTA HOSPITAL</name><ExtendedData><Data name="locId"><value>2GA6</value></Data></ExtendedData><Point><coordinates>-84.3941388888889,33.80799999999999</coordinates></Point></Placemark><Placemark><name>CHOA ARTHUR M BLANK HOSPITAL HELIPAD</name><ExtendedData><Data name="locId"><value>29GE</value></Data></ExtendedData><Point><coordinates>-84.33013333333331,33.8314444444445</coordinates></Point></Placemark><Placemark><name>DEKALB-PEACHTREE</name><ExtendedData><Data name="locId"><value>PDK</value></Data></ExtendedData><Point><coordinates>-84.3020305555555,33.8760019444444</coordinates></Point></Placemark><Placemark><name>GALLERIA</name><ExtendedData><Data name="locId"><value>16GA</value></Data></ExtendedData><Point><coordinates>-84.4652333333333,33.886455555555585</coordinates></Point></Placemark><Placemark><name>CHILDRENS HEALTH CARE ATL AT SCOTTISH RITE</name><ExtendedData><Data name="locId"><value>GA11</value></Data></ExtendedData><Point><coordinates>-84.35416666666669,33.9072222222222</coordinates></Point></Placemark><Placemark><name>HARTRAMPF</name><ExtendedData><Data name="locId"><value>23GA</value></Data></ExtendedData><Point><coordinates>-84.33214722222219,33.989544444444405</coordinates></Point></Placemark><Placemark><name>CALHOUN</name><ExtendedData><Data name="locId"><value>68GA</value></Data></ExtendedData><Point><coordinates>-84.44803333333329,34.00450555555561</coordinates></Point></Placemark><Placemark><name>ST JOSEPH'S HOSPITAL</name><ExtendedData><Data name="locId"><value>GA52</value></Data></ExtendedData><Point><coordinates>-84.35101944444439,33.9083638888889</coordinates></Point></Placemark><Placemark><name>RUFFWOOD</name><ExtendedData><Data name="locId"><value>73GA</value></Data></ExtendedData><Point><coordinates>-84.4358333333333,33.88249999999998</coordinates></Point></Placemark><Placemark><name>INTERSTATE NORTH</name><ExtendedData><Data name="locId"><value>GA54</value></Data></ExtendedData><Point><coordinates>-84.46833611111111,33.9008666666667</coordinates></Point></Placemark><Placemark><name>NORTHSIDE HOSPITAL</name><ExtendedData><Data name="locId"><value>GA55</value></Data></ExtendedData><Point><coordinates>-84.3557638888889,33.90984999999999</coordinates></Point></Placemark><Placemark><name>JOHNSON</name><ExtendedData><Data name="locId"><value>74GA</value></Data></ExtendedData><Point><coordinates>-84.6658888888889,33.2257222222222</coordinates></Point></Placemark><Placemark><name>ATLANTA RGNL FALCON FLD</name><ExtendedData><Data name="locId"><value>FFC</value></Data></ExtendedData><Point><coordinates>-84.57252777777781,33.35772222222221</coordinates></Point></Placemark><Placemark><name>MCINTOSH FLD</name><ExtendedData><Data name="locId"><value>95GA</value></Data></ExtendedData><Point><coordinates>-84.9429952777778,33.455946944444406</coordinates></Point></Placemark><Placemark><name>ERLEN</name><ExtendedData><Data name="locId"><value>3GA6</value></Data></ExtendedData><Point><coordinates>-84.8983333333333,33.5705555555556</coordinates></Point></Placemark><Placemark><name>SMISSON FLD</name><ExtendedData><Data name="locId"><value>7GA9</value></Data></ExtendedData><Point><coordinates>-84.8977777777778,33.5705555555556</coordinates></Point></Placemark><Placemark><name>PIEDMONT FAYETTE HOSPITAL</name><ExtendedData><Data name="locId"><value>17GE</value></Data></ExtendedData><Point><coordinates>-84.50677500000002,33.4530361111111</coordinates></Point></Placemark><Placemark><name>TANNER MEDICAL CENTER/VILLA RICA</name><ExtendedData><Data name="locId"><value>87GA</value></Data></ExtendedData><Point><coordinates>-84.91511388888891,33.7445</coordinates></Point></Placemark><Placemark><name>EARL L SMALL JR  FLD/STOCKMAR</name><ExtendedData><Data name="locId"><value>20GA</value></Data></ExtendedData><Point><coordinates>-84.8850625,33.75655555555561</coordinates></Point></Placemark><Placemark><name>AYRESOUTH</name><ExtendedData><Data name="locId"><value>0GA3</value></Data></ExtendedData><Point><coordinates>-85.0607791666667,33.770105833333304</coordinates></Point></Placemark><Placemark><name>PAULDING NORTHWEST ATLANTA</name><ExtendedData><Data name="locId"><value>PUJ</value></Data></ExtendedData><Point><coordinates>-84.9406194444445,33.9120430555556</coordinates></Point></Placemark><Placemark><name>PINEWOOD</name><ExtendedData><Data name="locId"><value>0GE0</value></Data></ExtendedData><Point><coordinates>-84.80077083333332,33.7820511111111</coordinates></Point></Placemark><Placemark><name>WELLSTAR PAULDING PEDIATRIC EMERGENCY DEPT</name><ExtendedData><Data name="locId"><value>41GE</value></Data></ExtendedData><Point><coordinates>-84.7810666666667,33.89981666666672</coordinates></Point></Placemark><Placemark><name>CAFFREY</name><ExtendedData><Data name="locId"><value>00GE</value></Data></ExtendedData><Point><coordinates>-84.7369472222222,33.88801944444441</coordinates></Point></Placemark><Placemark><name>WELLSTAR DOUGLAS HOSPITAL</name><ExtendedData><Data name="locId"><value>3GE6</value></Data></ExtendedData><Point><coordinates>-84.7322833333333,33.738486111111115</coordinates></Point></Placemark><Placemark><name>HARTSFIELD/JACKSON ATLANTA INTL</name><ExtendedData><Data name="locId"><value>ATL</value></Data></ExtendedData><Point><coordinates>-84.42786399999999,33.63669961111107</coordinates></Point></Placemark><Placemark><name>SOUTH FULTON MEDICAL CENTER</name><ExtendedData><Data name="locId"><value>GA71</value></Data></ExtendedData><Point><coordinates>-84.4271497222222,33.6795527777778</coordinates></Point></Placemark><Placemark><name>STATE CAPITAL PARKING LOT</name><ExtendedData><Data name="locId"><value>GA85</value></Data></ExtendedData><Point><coordinates>-84.3882583333333,33.74742777777779</coordinates></Point></Placemark><Placemark><name>GRADY MEML HOSPITAL</name><ExtendedData><Data name="locId"><value>1GE8</value></Data></ExtendedData><Point><coordinates>-84.3823944444444,33.752276388888916</coordinates></Point></Placemark><Placemark><name>EMORY UNIVERSITY HOSPITAL MIDTOWN</name><ExtendedData><Data name="locId"><value>GA64</value></Data></ExtendedData><Point><coordinates>-84.386875,33.768666666666675</coordinates></Point></Placemark><Placemark><name>HILTON GARDEN INN DOWNTOWN</name><ExtendedData><Data name="locId"><value>7GA6</value></Data></ExtendedData><Point><coordinates>-84.3955555555556,33.76194444444438</coordinates></Point></Placemark><Placemark><name>AE153 BASE</name><ExtendedData><Data name="locId"><value>GA93</value></Data></ExtendedData><Point><coordinates>-84.4332,33.48227222222221</coordinates></Point></Placemark><Placemark><name>FORT MCPHERSON</name><ExtendedData><Data name="locId"><value>GA96</value></Data></ExtendedData><Point><coordinates>-84.4305555555556,33.71249999999999</coordinates></Point></Placemark><Placemark><name>WEST GEORGIA RGNL/O V GRAY FLD</name><ExtendedData><Data name="locId"><value>CTJ</value></Data></ExtendedData><Point><coordinates>-85.15226472222218,33.631695833333325</coordinates></Point></Placemark><Placemark><name>TANNER MEDICAL CENTER</name><ExtendedData><Data name="locId"><value>3GA2</value></Data></ExtendedData><Point><coordinates>-85.0753833333333,33.570008333333305</coordinates></Point></Placemark><Placemark><name>WILSON AIRSTRIP</name><ExtendedData><Data name="locId"><value>27GA</value></Data></ExtendedData><Point><coordinates>-85.0099436111111,33.658441944444405</coordinates></Point></Placemark><Placemark><name>FALCONS AERIE</name><ExtendedData><Data name="locId"><value>8GA8</value></Data></ExtendedData><Point><coordinates>-85.0029980555556,33.57733277777781</coordinates></Point></Placemark><Placemark><name>WCC</name><ExtendedData><Data name="locId"><value>64GE</value></Data></ExtendedData><Point><coordinates>-85.3118845,33.7269405</coordinates></Point></Placemark><Placemark><name>SMITTY SHOALS</name><ExtendedData><Data name="locId"><value>63GA</value></Data></ExtendedData><Point><coordinates>-83.5520833333333,33.810555555555595</coordinates></Point></Placemark><Placemark><name>SEC</name><ExtendedData><Data name="locId"><value>38GE</value></Data></ExtendedData><Point><coordinates>-83.5847222222222,33.813611111111086</coordinates></Point></Placemark><Placemark><name>KINTAIL FARM</name><ExtendedData><Data name="locId"><value>GA00</value></Data></ExtendedData><Point><coordinates>-83.6397222222222,33.82555555555561</coordinates></Point></Placemark><Placemark><name>VERGE TOWERS</name><ExtendedData><Data name="locId"><value>04GA</value></Data></ExtendedData><Point><coordinates>-83.5623277777778,33.83236111111111</coordinates></Point></Placemark><Placemark><name>APPALACHEE BLUFF RIVERFRONT AIRPARK</name><ExtendedData><Data name="locId"><value>67GA</value></Data></ExtendedData><Point><coordinates>-83.5876666666667,33.85928249999999</coordinates></Point></Placemark><Placemark><name>BARROW COUNTY</name><ExtendedData><Data name="locId"><value>WDR</value></Data></ExtendedData><Point><coordinates>-83.66721666666672,33.982689722222204</coordinates></Point></Placemark><Placemark><name>SLEEPY HOLLOW</name><ExtendedData><Data name="locId"><value>18GA</value></Data></ExtendedData><Point><coordinates>-83.6576722222222,33.69317361111112</coordinates></Point></Placemark><Placemark><name>BMW VALLEY</name><ExtendedData><Data name="locId"><value>97GE</value></Data></ExtendedData><Point><coordinates>-83.67436111111111,33.719713888888904</coordinates></Point></Placemark><Placemark><name>TAYLOR FLD</name><ExtendedData><Data name="locId"><value>GA16</value></Data></ExtendedData><Point><coordinates>-83.5668338888889,33.7242872222222</coordinates></Point></Placemark><Placemark><name>SOUTHERN OAKS</name><ExtendedData><Data name="locId"><value>GE35</value></Data></ExtendedData><Point><coordinates>-83.46972222222222,33.731388888888915</coordinates></Point></Placemark><Placemark><name>ATLANTA SPEEDWAY</name><ExtendedData><Data name="locId"><value>HMP</value></Data></ExtendedData><Point><coordinates>-84.3310369444444,33.389902500000005</coordinates></Point></Placemark><Placemark><name>PIEDMONT HENRY HOSPITAL</name><ExtendedData><Data name="locId"><value>43GA</value></Data></ExtendedData><Point><coordinates>-84.2281583333333,33.513644444444395</coordinates></Point></Placemark><Placemark><name>GRANT</name><ExtendedData><Data name="locId"><value>3GA0</value></Data></ExtendedData><Point><coordinates>-84.1569444444444,33.5275</coordinates></Point></Placemark><Placemark><name>BERRY HILL</name><ExtendedData><Data name="locId"><value>7GA7</value></Data></ExtendedData><Point><coordinates>-84.17905555555559,33.53555555555559</coordinates></Point></Placemark><Placemark><name>LOLA LANDING</name><ExtendedData><Data name="locId"><value>36GA</value></Data></ExtendedData><Point><coordinates>-83.97463305555559,33.73010944444438</coordinates></Point></Placemark><Placemark><name>LT WORLD</name><ExtendedData><Data name="locId"><value>00GA</value></Data></ExtendedData><Point><coordinates>-84.0683333333333,33.7675</coordinates></Point></Placemark><Placemark><name>WHISPERING PINES</name><ExtendedData><Data name="locId"><value>GA80</value></Data></ExtendedData><Point><coordinates>-83.9887997222222,33.7823302777778</coordinates></Point></Placemark><Placemark><name>LENORA</name><ExtendedData><Data name="locId"><value>2GA9</value></Data></ExtendedData><Point><coordinates>-83.99972222222222,33.8091666666667</coordinates></Point></Placemark><Placemark><name>NORTHSIDE HOSPITAL GWINNETT</name><ExtendedData><Data name="locId"><value>55GA</value></Data></ExtendedData><Point><coordinates>-84.0182944444445,33.9635138888889</coordinates></Point></Placemark><Placemark><name>GWINNETT COUNTY/BRISCOE FLD</name><ExtendedData><Data name="locId"><value>LZU</value></Data></ExtendedData><Point><coordinates>-83.9623638888889,33.97809194444439</coordinates></Point></Placemark><Placemark><name>GWINNETT COMM HOSP D/B/A EASTSIDE MED CNTR</name><ExtendedData><Data name="locId"><value>12GA</value></Data></ExtendedData><Point><coordinates>-84.01981666666669,33.8772722222222</coordinates></Point></Placemark><Placemark><name>KENNEDY INTRANATIONAL</name><ExtendedData><Data name="locId"><value>2GA0</value></Data></ExtendedData><Point><coordinates>-83.6387958333333,33.5267847222222</coordinates></Point></Placemark><Placemark><name>DREAM TEAM</name><ExtendedData><Data name="locId"><value>GA50</value></Data></ExtendedData><Point><coordinates>-83.5177777777778,33.59750000000001</coordinates></Point></Placemark><Placemark><name>HOME FLD</name><ExtendedData><Data name="locId"><value>GA65</value></Data></ExtendedData><Point><coordinates>-83.3552569444444,33.60791111111111</coordinates></Point></Placemark><Placemark><name>SMITH FLD</name><ExtendedData><Data name="locId"><value>GE56</value></Data></ExtendedData><Point><coordinates>-83.26124199999998,33.676014499999994</coordinates></Point></Placemark><Placemark><name>NEELY FARMS</name><ExtendedData><Data name="locId"><value>9GE7</value></Data></ExtendedData><Point><coordinates>-83.79194444444441,33.5313888888889</coordinates></Point></Placemark><Placemark><name>WINDY HILL</name><ExtendedData><Data name="locId"><value>GA83</value></Data></ExtendedData><Point><coordinates>-83.8054580555555,33.54678333333331</coordinates></Point></Placemark><Placemark><name>PIEDMONT NEWTON HOSPITAL</name><ExtendedData><Data name="locId"><value>71GA</value></Data></ExtendedData><Point><coordinates>-83.84868055555552,33.6018</coordinates></Point></Placemark><Placemark><name>COVINGTON MUNI</name><ExtendedData><Data name="locId"><value>CVC</value></Data></ExtendedData><Point><coordinates>-83.84661888888888,33.63224750000002</coordinates></Point></Placemark><Placemark><name>ALCOVY</name><ExtendedData><Data name="locId"><value>07GA</value></Data></ExtendedData><Point><coordinates>-83.76305555555558,33.675</coordinates></Point></Placemark><Placemark><name>MONTICELLO SKY RANCH</name><ExtendedData><Data name="locId"><value>GA06</value></Data></ExtendedData><Point><coordinates>-83.72694444444441,33.33250000000001</coordinates></Point></Placemark><Placemark><name>POOLE FARM</name><ExtendedData><Data name="locId"><value>2GA1</value></Data></ExtendedData><Point><coordinates>-83.8526819444444,33.6806686111111</coordinates></Point></Placemark><Placemark><name>SPRING VALLEY FARM</name><ExtendedData><Data name="locId"><value>6GA4</value></Data></ExtendedData><Point><coordinates>-83.8512919444444,33.797054999999986</coordinates></Point></Placemark><Placemark><name>SUNSET STRIP</name><ExtendedData><Data name="locId"><value>0GA6</value></Data></ExtendedData><Point><coordinates>-83.81879083333328,33.73344611111111</coordinates></Point></Placemark><Placemark><name>WALTON RGNL MEDICAL CENTER</name><ExtendedData><Data name="locId"><value>GA38</value></Data></ExtendedData><Point><coordinates>-83.7496527777778,33.7999972222222</coordinates></Point></Placemark><Placemark><name>CY NUNNALLY MEML</name><ExtendedData><Data name="locId"><value>D73</value></Data></ExtendedData><Point><coordinates>-83.6928055555556,33.78252777777777</coordinates></Point></Placemark><Placemark><name>AERIE</name><ExtendedData><Data name="locId"><value>1GA9</value></Data></ExtendedData><Point><coordinates>-83.6526708333333,33.76150555555559</coordinates></Point></Placemark><Placemark><name>SMITH</name><ExtendedData><Data name="locId"><value>06GA</value></Data></ExtendedData><Point><coordinates>-84.16214027777781,33.753439722222225</coordinates></Point></Placemark><Placemark><name>STONE MOUNTAIN PARK SKYLIFT</name><ExtendedData><Data name="locId"><value>92GA</value></Data></ExtendedData><Point><coordinates>-84.1408333333333,33.81305555555559</coordinates></Point></Placemark><Placemark><name>STONE MOUNTAIN PARK PUBLIC SAFETY</name><ExtendedData><Data name="locId"><value>GE34</value></Data></ExtendedData><Point><coordinates>-84.1506861111111,33.81930833333328</coordinates></Point></Placemark><Placemark><name>WILLIAMS</name><ExtendedData><Data name="locId"><value>3GE2</value></Data></ExtendedData><Point><coordinates>-84.1280555555555,33.8208333333333</coordinates></Point></Placemark><Placemark><name>CIRCLE T</name><ExtendedData><Data name="locId"><value>98GA</value></Data></ExtendedData><Point><coordinates>-83.91240694444448,33.20568</coordinates></Point></Placemark><Placemark><name>SEVEN LAKES</name><ExtendedData><Data name="locId"><value>62GA</value></Data></ExtendedData><Point><coordinates>-83.91629583333328,33.324565000000035</coordinates></Point></Placemark><Placemark><name>NTL EMS HEADQUARTERS</name><ExtendedData><Data name="locId"><value>9GE9</value></Data></ExtendedData><Point><coordinates>-84.0219666666667,33.64977222222221</coordinates></Point></Placemark><Placemark><name>ROCKDALE HOSPITAL</name><ExtendedData><Data name="locId"><value>3GE5</value></Data></ExtendedData><Point><coordinates>-84.00277222222219,33.680075</coordinates></Point></Placemark><Placemark><name>COX FLD</name><ExtendedData><Data name="locId"><value>30GA</value></Data></ExtendedData><Point><coordinates>-83.9013666666667,33.28288611111111</coordinates></Point></Placemark><Placemark><name>RIVER BEND</name><ExtendedData><Data name="locId"><value>GE33</value></Data></ExtendedData><Point><coordinates>-84.1366666666667,33.3044444444444</coordinates></Point></Placemark><Placemark><name>CHIGGER HILL</name><ExtendedData><Data name="locId"><value>GE53</value></Data></ExtendedData><Point><coordinates>-84.15027777777779,33.31666666666668</coordinates></Point></Placemark><Placemark><name>BEAVERBROOK AERODROME</name><ExtendedData><Data name="locId"><value>10GA</value></Data></ExtendedData><Point><coordinates>-84.29825666666672,33.32511388888891</coordinates></Point></Placemark><Placemark><name>PECAN PATCH AIRSTRIP</name><ExtendedData><Data name="locId"><value>0GE4</value></Data></ExtendedData><Point><coordinates>-84.2666666666667,33.33138888888891</coordinates></Point></Placemark><Placemark><name>HALLS FLYING RANCH</name><ExtendedData><Data name="locId"><value>0GA0</value></Data></ExtendedData><Point><coordinates>-84.3671463888889,33.3562261111111</coordinates></Point></Placemark><Placemark><name>MALLARDS LANDING</name><ExtendedData><Data name="locId"><value>GA04</value></Data></ExtendedData><Point><coordinates>-84.1651963888889,33.36567027777781</coordinates></Point></Placemark><Placemark><name>SPALDING RGNL MEDICAL CENTER</name><ExtendedData><Data name="locId"><value>45GA</value></Data></ExtendedData><Point><coordinates>-84.266486,33.239886999999996</coordinates></Point></Placemark><Placemark><name>DIAMOND S</name><ExtendedData><Data name="locId"><value>GA89</value></Data></ExtendedData><Point><coordinates>-84.2769444444444,33.4758333333333</coordinates></Point></Placemark><Placemark><name>BECK FLD</name><ExtendedData><Data name="locId"><value>GA92</value></Data></ExtendedData><Point><coordinates>-84.5144444444445,33.51944444444439</coordinates></Point></Placemark><Placemark><name>COLEMAN FLD</name><ExtendedData><Data name="locId"><value>GA95</value></Data></ExtendedData><Point><coordinates>-84.5021502777778,33.52622388888891</coordinates></Point></Placemark><Placemark><name>FALCONS NEST</name><ExtendedData><Data name="locId"><value>41GA</value></Data></ExtendedData><Point><coordinates>-84.3464055555555,33.5381361111111</coordinates></Point></Placemark><Placemark><name>SOUTHERN RGNL MEDICAL CENTER</name><ExtendedData><Data name="locId"><value>49GA</value></Data></ExtendedData><Point><coordinates>-84.388225,33.57972499999997</coordinates></Point></Placemark><Placemark><name>STONEWALL</name><ExtendedData><Data name="locId"><value>3GA4</value></Data></ExtendedData><Point><coordinates>-84.5497722222222,33.60248611111112</coordinates></Point></Placemark><Placemark><name>ANDY FIELDS</name><ExtendedData><Data name="locId"><value>2GE8</value></Data></ExtendedData><Point><coordinates>-84.6633333333333,33.4641666666667</coordinates></Point></Placemark><Placemark><name>TWO ROCKS</name><ExtendedData><Data name="locId"><value>GA31</value></Data></ExtendedData><Point><coordinates>-84.6685472222222,33.46978888888887</coordinates></Point></Placemark><Placemark><name>JJ'S RANCH</name><ExtendedData><Data name="locId"><value>25GA</value></Data></ExtendedData><Point><coordinates>-84.6629888888889,33.659553888888894</coordinates></Point></Placemark><Placemark><name>CHATTAHOOCHEE AIR PARK</name><ExtendedData><Data name="locId"><value>4GA6</value></Data></ExtendedData><Point><coordinates>-84.6804894444444,33.662053888888906</coordinates></Point></Placemark><Placemark><name>ROLLING MEADOWS AIRFIELD</name><ExtendedData><Data name="locId"><value>29GA</value></Data></ExtendedData><Point><coordinates>-84.6319444444444,33.3842830555556</coordinates></Point></Placemark><Placemark><name>SMITH FLD</name><ExtendedData><Data name="locId"><value>51GA</value></Data></ExtendedData><Point><coordinates>-84.6004861111111,33.508055555555586</coordinates></Point></Placemark><Placemark><name>C &amp; W AIR PARK</name><ExtendedData><Data name="locId"><value>1GE2</value></Data></ExtendedData><Point><coordinates>-84.5438888888889,32.844444444444406</coordinates></Point></Placemark><Placemark><name>RAINBOW FLD</name><ExtendedData><Data name="locId"><value>6GE2</value></Data></ExtendedData><Point><coordinates>-84.5377777777778,32.83277777777781</coordinates></Point></Placemark><Placemark><name>ROUGH COUNTRY</name><ExtendedData><Data name="locId"><value>7GE7</value></Data></ExtendedData><Point><coordinates>-84.6611111111111,33.0463888888889</coordinates></Point></Placemark><Placemark><name>FAGUNDES FLD</name><ExtendedData><Data name="locId"><value>6GA1</value></Data></ExtendedData><Point><coordinates>-84.5838163888889,33.1990105555556</coordinates></Point></Placemark><Placemark><name>GABLE BRANCH</name><ExtendedData><Data name="locId"><value>5GA0</value></Data></ExtendedData><Point><coordinates>-84.54437111111112,33.22762083333332</coordinates></Point></Placemark><Placemark><name>BIG 'T'</name><ExtendedData><Data name="locId"><value>64GA</value></Data></ExtendedData><Point><coordinates>-84.5388158333333,33.28345250000001</coordinates></Point></Placemark><Placemark><name>CEDAR RIDGE</name><ExtendedData><Data name="locId"><value>GA62</value></Data></ExtendedData><Point><coordinates>-84.40020250000002,33.25511749999998</coordinates></Point></Placemark><Placemark><name>PINEBROOK ESTATES</name><ExtendedData><Data name="locId"><value>5GA5</value></Data></ExtendedData><Point><coordinates>-84.3493686111111,33.259838055555605</coordinates></Point></Placemark><Placemark><name>GRIFFIN-SPALDING COUNTY</name><ExtendedData><Data name="locId"><value>6A2</value></Data></ExtendedData><Point><coordinates>-84.2749444444444,33.226972222222216</coordinates></Point></Placemark><Placemark><name>FLYING FROG FLD</name><ExtendedData><Data name="locId"><value>91GA</value></Data></ExtendedData><Point><coordinates>-84.7933333333333,33.27361111111112</coordinates></Point></Placemark><Placemark><name>NEWNAN COWETA COUNTY</name><ExtendedData><Data name="locId"><value>CCO</value></Data></ExtendedData><Point><coordinates>-84.7697554166667,33.31156555555563</coordinates></Point></Placemark><Placemark><name>PIEDMONT HOSPITAL-NEWNAN</name><ExtendedData><Data name="locId"><value>21GA</value></Data></ExtendedData><Point><coordinates>-84.7558333333333,33.35833333333329</coordinates></Point></Placemark><Placemark><name>FLYING N ESTATES</name><ExtendedData><Data name="locId"><value>1GA2</value></Data></ExtendedData><Point><coordinates>-84.7485427777778,33.177343611111084</coordinates></Point></Placemark><Placemark><name>ROOSEVELT MEML</name><ExtendedData><Data name="locId"><value>5A9</value></Data></ExtendedData><Point><coordinates>-84.6964444444445,32.93850000000002</coordinates></Point></Placemark><Placemark><name>WAVERLY LANDING</name><ExtendedData><Data name="locId"><value>1GE9</value></Data></ExtendedData><Point><coordinates>-84.7180555555556,32.714444444444425</coordinates></Point></Placemark><Placemark><name>EPIC FLD</name><ExtendedData><Data name="locId"><value>88GA</value></Data></ExtendedData><Point><coordinates>-84.80182880555562,32.752352666666695</coordinates></Point></Placemark><Placemark><name>M K FLD</name><ExtendedData><Data name="locId"><value>6GE4</value></Data></ExtendedData><Point><coordinates>-84.8303611111111,33.1686944444444</coordinates></Point></Placemark><Placemark><name>PANACEA</name><ExtendedData><Data name="locId"><value>5GA7</value></Data></ExtendedData><Point><coordinates>-85.2305,33.20178611111112</coordinates></Point></Placemark><Placemark><name>ANSWERED PRAYER</name><ExtendedData><Data name="locId"><value>1GE3</value></Data></ExtendedData><Point><coordinates>-85.1702777777778,33.253888888888895</coordinates></Point></Placemark><Placemark><name>MURPHY'S LANDING</name><ExtendedData><Data name="locId"><value>80GA</value></Data></ExtendedData><Point><coordinates>-84.8446572222222,33.25873</coordinates></Point></Placemark><Placemark><name>C&amp;R FARM</name><ExtendedData><Data name="locId"><value>78GA</value></Data></ExtendedData><Point><coordinates>-85.01716444444442,33.50427888888889</coordinates></Point></Placemark><Placemark><name>FLYING W FARMS</name><ExtendedData><Data name="locId"><value>6GA8</value></Data></ExtendedData><Point><coordinates>-85.18555555555558,33.50777777777779</coordinates></Point></Placemark><Placemark><name>PANTHER CREEK</name><ExtendedData><Data name="locId"><value>17GA</value></Data></ExtendedData><Point><coordinates>-84.8656666666667,33.46666666666671</coordinates></Point></Placemark><Placemark><name>GUM CREEK</name><ExtendedData><Data name="locId"><value>8GA1</value></Data></ExtendedData><Point><coordinates>-85.1618891666667,33.42122499999999</coordinates></Point></Placemark><Placemark><name>GRAYHILL</name><ExtendedData><Data name="locId"><value>GA98</value></Data></ExtendedData><Point><coordinates>-85.05388888888892,32.94861111111109</coordinates></Point></Placemark><Placemark><name>LAGRANGE/CALLAWAY</name><ExtendedData><Data name="locId"><value>LGC</value></Data></ExtendedData><Point><coordinates>-85.0732041666667,33.00915083333331</coordinates></Point></Placemark><Placemark><name>WEST GEORGIA MEDICAL CENTER</name><ExtendedData><Data name="locId"><value>GA33</value></Data></ExtendedData><Point><coordinates>-85.05719722222221,33.031419444444396</coordinates></Point></Placemark><Placemark><name>RICHARDS</name><ExtendedData><Data name="locId"><value>GA44</value></Data></ExtendedData><Point><coordinates>-85.031605,33.07929</coordinates></Point></Placemark><Placemark><name>MCLENDON FLD</name><ExtendedData><Data name="locId"><value>GE04</value></Data></ExtendedData><Point><coordinates>-84.9655555555556,32.66694444444441</coordinates></Point></Placemark><Placemark><name>HARRIS COUNTY</name><ExtendedData><Data name="locId"><value>PIM</value></Data></ExtendedData><Point><coordinates>-84.8824444444444,32.84069444444441</coordinates></Point></Placemark><Placemark><name>RIDGEVIEW FARM</name><ExtendedData><Data name="locId"><value>GA10</value></Data></ExtendedData><Point><coordinates>-84.3519527777778,33.06895277777781</coordinates></Point></Placemark><Placemark><name>BROWN FLD</name><ExtendedData><Data name="locId"><value>9GA0</value></Data></ExtendedData><Point><coordinates>-84.34242111111108,33.05706972222221</coordinates></Point></Placemark><Placemark><name>UPSON RGNL MEDICAL CENTER</name><ExtendedData><Data name="locId"><value>GA02</value></Data></ExtendedData><Point><coordinates>-84.33722777777778,32.88516111111109</coordinates></Point></Placemark><Placemark><name>THOMASTON-UPSON COUNTY</name><ExtendedData><Data name="locId"><value>OPN</value></Data></ExtendedData><Point><coordinates>-84.2640861944444,32.95500255555561</coordinates></Point></Placemark><Placemark><name>PEACH RGNL MEDICAL CENTER</name><ExtendedData><Data name="locId"><value>28GA</value></Data></ExtendedData><Point><coordinates>-83.7588805555555,32.6062</coordinates></Point></Placemark><Placemark><name>SMITH FLD</name><ExtendedData><Data name="locId"><value>GE27</value></Data></ExtendedData><Point><coordinates>-83.75416666666672,32.602222222222196</coordinates></Point></Placemark><Placemark><name>PEACHTREE LANDINGS</name><ExtendedData><Data name="locId"><value>5GE1</value></Data></ExtendedData><Point><coordinates>-83.7219444444444,32.57027777777779</coordinates></Point></Placemark><Placemark><name>WARNER ROBINS AIR PARK</name><ExtendedData><Data name="locId"><value>5A2</value></Data></ExtendedData><Point><coordinates>-83.67675,32.56063888888889</coordinates></Point></Placemark><Placemark><name>MIDDLE GEORGIA RGNL</name><ExtendedData><Data name="locId"><value>MCN</value></Data></ExtendedData><Point><coordinates>-83.6492222222222,32.69283333333328</coordinates></Point></Placemark><Placemark><name>HOUSTON HEALTHCARE HOSPITAL</name><ExtendedData><Data name="locId"><value>2GA3</value></Data></ExtendedData><Point><coordinates>-83.6305444444444,32.6153972222222</coordinates></Point></Placemark><Placemark><name>ROBINS AFB</name><ExtendedData><Data name="locId"><value>WRB</value></Data></ExtendedData><Point><coordinates>-83.5919208333333,32.6401708333333</coordinates></Point></Placemark><Placemark><name>LITTLE TOBESOFKEE CREEK RANCH</name><ExtendedData><Data name="locId"><value>GA86</value></Data></ExtendedData><Point><coordinates>-84.0955555555555,32.9838888888889</coordinates></Point></Placemark><Placemark><name>MONROE COUNTY HOSPITAL</name><ExtendedData><Data name="locId"><value>GA24</value></Data></ExtendedData><Point><coordinates>-83.9450305555556,33.030891666666705</coordinates></Point></Placemark><Placemark><name>GEORGIA PUBLIC SAFETY TRAINING CENTER</name><ExtendedData><Data name="locId"><value>90GA</value></Data></ExtendedData><Point><coordinates>-83.96226666666671,33.060163888888894</coordinates></Point></Placemark><Placemark><name>ANTIQUE ACRES</name><ExtendedData><Data name="locId"><value>GA59</value></Data></ExtendedData><Point><coordinates>-84.05852444444442,33.10012583333331</coordinates></Point></Placemark><Placemark><name>BROKEN RANCH</name><ExtendedData><Data name="locId"><value>GA76</value></Data></ExtendedData><Point><coordinates>-83.8987952777778,33.15484861111109</coordinates></Point></Placemark><Placemark><name>MACON DOWNTOWN</name><ExtendedData><Data name="locId"><value>MAC</value></Data></ExtendedData><Point><coordinates>-83.5619349444444,32.8217644444444</coordinates></Point></Placemark><Placemark><name>MEDICAL CENTER, NAVICENT HEALTH</name><ExtendedData><Data name="locId"><value>77GE</value></Data></ExtendedData><Point><coordinates>-83.6361111111111,32.8344444444444</coordinates></Point></Placemark><Placemark><name>LAKE TOBESOFKEE</name><ExtendedData><Data name="locId"><value>75GA</value></Data></ExtendedData><Point><coordinates>-83.8240222222222,32.8439666666667</coordinates></Point></Placemark><Placemark><name>PRATTSBURG</name><ExtendedData><Data name="locId"><value>3GA1</value></Data></ExtendedData><Point><coordinates>-84.3569444444444,32.72833333333331</coordinates></Point></Placemark><Placemark><name>BUTLER MUNI</name><ExtendedData><Data name="locId"><value>6A1</value></Data></ExtendedData><Point><coordinates>-84.2466875,32.56823583333329</coordinates></Point></Placemark><Placemark><name>GENTLE LANDINGS AIR PARK</name><ExtendedData><Data name="locId"><value>0GA9</value></Data></ExtendedData><Point><coordinates>-84.0285388888889,32.7135958333333</coordinates></Point></Placemark><Placemark><name>BIG DOG - CAMERON FLD</name><ExtendedData><Data name="locId"><value>GA81</value></Data></ExtendedData><Point><coordinates>-83.8269444444444,32.547777777777796</coordinates></Point></Placemark><Placemark><name>MIAMI VALLEY FARM</name><ExtendedData><Data name="locId"><value>GA99</value></Data></ExtendedData><Point><coordinates>-83.80185194444441,32.5487586111111</coordinates></Point></Placemark><Placemark><name>FLYING 'H' RANCH</name><ExtendedData><Data name="locId"><value>GA68</value></Data></ExtendedData><Point><coordinates>-84.4490902777778,33.114846111111106</coordinates></Point></Placemark><Placemark><name>WINDRIFT AERODROME</name><ExtendedData><Data name="locId"><value>2GA5</value></Data></ExtendedData><Point><coordinates>-84.4321444444444,33.0417933333333</coordinates></Point></Placemark><Placemark><name>TAKLE FLD</name><ExtendedData><Data name="locId"><value>GA74</value></Data></ExtendedData><Point><coordinates>-84.4124219444444,33.041793055555615</coordinates></Point></Placemark><Placemark><name>MEADOWLARK</name><ExtendedData><Data name="locId"><value>GA75</value></Data></ExtendedData><Point><coordinates>-84.40520027777781,33.08734666666669</coordinates></Point></Placemark><Placemark><name>THACKER FLD</name><ExtendedData><Data name="locId"><value>4GA1</value></Data></ExtendedData><Point><coordinates>-84.398255,33.044848333333306</coordinates></Point></Placemark><Placemark><name>FLYING D</name><ExtendedData><Data name="locId"><value>1GE5</value></Data></ExtendedData><Point><coordinates>-84.3935333333333,33.10123611111109</coordinates></Point></Placemark><Placemark><name>KITCHENS FLD</name><ExtendedData><Data name="locId"><value>4GA7</value></Data></ExtendedData><Point><coordinates>-84.25408777777781,33.13456444444441</coordinates></Point></Placemark><Placemark><name>WELLERS LANDING</name><ExtendedData><Data name="locId"><value>GA29</value></Data></ExtendedData><Point><coordinates>-84.431035,33.156233333333276</coordinates></Point></Placemark><Placemark><name>SHADE TREE</name><ExtendedData><Data name="locId"><value>GA73</value></Data></ExtendedData><Point><coordinates>-84.45325749999999,33.16178888888891</coordinates></Point></Placemark><Placemark><name>S &amp; S LANDING STRIP</name><ExtendedData><Data name="locId"><value>8GA6</value></Data></ExtendedData><Point><coordinates>-84.3205555555556,33.1622222222222</coordinates></Point></Placemark><Placemark><name>TOLAND</name><ExtendedData><Data name="locId"><value>77GA</value></Data></ExtendedData><Point><coordinates>-84.2135313888889,33.16400805555561</coordinates></Point></Placemark><Placemark><name>PEACH STATE AERODROME</name><ExtendedData><Data name="locId"><value>GA2</value></Data></ExtendedData><Point><coordinates>-84.3715902777778,33.1834530555556</coordinates></Point></Placemark><Placemark><name>EAGLES LANDING</name><ExtendedData><Data name="locId"><value>5GA3</value></Data></ExtendedData><Point><coordinates>-84.3716731111111,33.15495169444439</coordinates></Point></Placemark><Placemark><name>3-M'S</name><ExtendedData><Data name="locId"><value>96GA</value></Data></ExtendedData><Point><coordinates>-84.3680555555555,33.185833333333306</coordinates></Point></Placemark><Placemark><name>VINTAGE FLD</name><ExtendedData><Data name="locId"><value>3GA9</value></Data></ExtendedData><Point><coordinates>-84.3774227777778,33.1334555555556</coordinates></Point></Placemark><Placemark><name>KENLEY FLD</name><ExtendedData><Data name="locId"><value>GA61</value></Data></ExtendedData><Point><coordinates>-84.49714805555561,33.269008611111104</coordinates></Point></Placemark><Placemark><name>WILLOW POND AVIATION INC</name><ExtendedData><Data name="locId"><value>19GA</value></Data></ExtendedData><Point><coordinates>-84.4999269444444,33.42372666666671</coordinates></Point></Placemark><Placemark><name>WALKER FLD</name><ExtendedData><Data name="locId"><value>GA90</value></Data></ExtendedData><Point><coordinates>-84.4093694444445,33.4520583333333</coordinates></Point></Placemark><Placemark><name>MC LENDON</name><ExtendedData><Data name="locId"><value>GA94</value></Data></ExtendedData><Point><coordinates>-84.48937166666668,33.49150249999997</coordinates></Point></Placemark><Placemark><name>BROOK BRIDGE AERODROME</name><ExtendedData><Data name="locId"><value>8GA9</value></Data></ExtendedData><Point><coordinates>-84.4107580555556,33.276784166666715</coordinates></Point></Placemark><Placemark><name>DOCTORS HOSPITAL</name><ExtendedData><Data name="locId"><value>8GA4</value></Data></ExtendedData><Point><coordinates>-82.09330555555552,33.486583333333314</coordinates></Point></Placemark><Placemark><name>DANIEL FLD</name><ExtendedData><Data name="locId"><value>DNL</value></Data></ExtendedData><Point><coordinates>-82.0393888888889,33.466583333333304</coordinates></Point></Placemark><Placemark><name>WRDW</name><ExtendedData><Data name="locId"><value>80GE</value></Data></ExtendedData><Point><coordinates>-82.0263027777778,33.523083333333304</coordinates></Point></Placemark><Placemark><name>WELLSTAR MCG/WELLSTAR CHILDRENS HOSPITAL OF</name><ExtendedData><Data name="locId"><value>4GA2</value></Data></ExtendedData><Point><coordinates>-81.9879388888889,33.47126111111109</coordinates></Point></Placemark><Placemark><name>UNIVERSITY HOSPITAL</name><ExtendedData><Data name="locId"><value>GA13</value></Data></ExtendedData><Point><coordinates>-81.9832388888889,33.4716416666667</coordinates></Point></Placemark><Placemark><name>CARPENTER</name><ExtendedData><Data name="locId"><value>0GE7</value></Data></ExtendedData><Point><coordinates>-82.3725,33.52027777777781</coordinates></Point></Placemark><Placemark><name>AU HEALTH COLUMBIA COUNTY HOSPITAL</name><ExtendedData><Data name="locId"><value>20GE</value></Data></ExtendedData><Point><coordinates>-82.1879361111111,33.48063333333329</coordinates></Point></Placemark><Placemark><name>FORT GORDON HQ</name><ExtendedData><Data name="locId"><value>GA26</value></Data></ExtendedData><Point><coordinates>-82.1395638888889,33.420416388888924</coordinates></Point></Placemark><Placemark><name>MORRIS</name><ExtendedData><Data name="locId"><value>GE00</value></Data></ExtendedData><Point><coordinates>-82.13583333333328,33.6097222222222</coordinates></Point></Placemark><Placemark><name>DWIGHT DAVID EISENHOWER ARMY MEDICAL CNTR</name><ExtendedData><Data name="locId"><value>8GA2</value></Data></ExtendedData><Point><coordinates>-82.1227138888889,33.4301861111111</coordinates></Point></Placemark><Placemark><name>BURKE COUNTY</name><ExtendedData><Data name="locId"><value>BXG</value></Data></ExtendedData><Point><coordinates>-82.0042636111111,33.04083694444442</coordinates></Point></Placemark><Placemark><name>BURKE COUNTY HOSPITAL</name><ExtendedData><Data name="locId"><value>2GE1</value></Data></ExtendedData><Point><coordinates>-82.01336111111111,33.08331388888891</coordinates></Point></Placemark><Placemark><name>VOGTLE ELECTRIC GENERATING PLANT</name><ExtendedData><Data name="locId"><value>GA51</value></Data></ExtendedData><Point><coordinates>-81.7444611111111,33.12543333333332</coordinates></Point></Placemark><Placemark><name>SANDY HILL</name><ExtendedData><Data name="locId"><value>GE30</value></Data></ExtendedData><Point><coordinates>-81.99527777777782,33.221111111111114</coordinates></Point></Placemark><Placemark><name>PEA PATCH AERODROME</name><ExtendedData><Data name="locId"><value>61GA</value></Data></ExtendedData><Point><coordinates>-82.1723427777778,33.301808888888885</coordinates></Point></Placemark><Placemark><name>AUGUSTA RGNL AT BUSH FLD</name><ExtendedData><Data name="locId"><value>AGS</value></Data></ExtendedData><Point><coordinates>-81.9644983333333,33.3699541666667</coordinates></Point></Placemark><Placemark><name>WRENS MEML</name><ExtendedData><Data name="locId"><value>65J</value></Data></ExtendedData><Point><coordinates>-82.3845,33.22277777777779</coordinates></Point></Placemark><Placemark><name>VANGUARD LANDING</name><ExtendedData><Data name="locId"><value>5GA1</value></Data></ExtendedData><Point><coordinates>-81.92916666666672,33.209166666666704</coordinates></Point></Placemark><Placemark><name>CRITTER CREEK</name><ExtendedData><Data name="locId"><value>GE20</value></Data></ExtendedData><Point><coordinates>-82.32576408333328,33.05580927777778</coordinates></Point></Placemark><Placemark><name>DARLA'S</name><ExtendedData><Data name="locId"><value>15GA</value></Data></ExtendedData><Point><coordinates>-82.4790186111111,32.68016166666669</coordinates></Point></Placemark><Placemark><name>EAST GEORGIA RGNL</name><ExtendedData><Data name="locId"><value>SBO</value></Data></ExtendedData><Point><coordinates>-82.3699444444444,32.60913888888891</coordinates></Point></Placemark><Placemark><name>EMANUEL COUNTY HOSPITAL</name><ExtendedData><Data name="locId"><value>93GA</value></Data></ExtendedData><Point><coordinates>-82.3480277777778,32.5928777777778</coordinates></Point></Placemark><Placemark><name>HACIENDA DE GAY AIRSTRIP</name><ExtendedData><Data name="locId"><value>7GA3</value></Data></ExtendedData><Point><coordinates>-82.0752777777778,32.6633333333333</coordinates></Point></Placemark><Placemark><name>PEGASUS RANCH</name><ExtendedData><Data name="locId"><value>0GE9</value></Data></ExtendedData><Point><coordinates>-81.7986111111111,32.69388888888889</coordinates></Point></Placemark><Placemark><name>PLANTATION AIRPARK</name><ExtendedData><Data name="locId"><value>JYL</value></Data></ExtendedData><Point><coordinates>-81.5966116666667,32.645522777777785</coordinates></Point></Placemark><Placemark><name>LANDINGS EAST SYLVANIA</name><ExtendedData><Data name="locId"><value>76GA</value></Data></ExtendedData><Point><coordinates>-81.61305555555549,32.74472222222218</coordinates></Point></Placemark><Placemark><name>HIA</name><ExtendedData><Data name="locId"><value>03GA</value></Data></ExtendedData><Point><coordinates>-81.8576944444444,32.56230555555558</coordinates></Point></Placemark><Placemark><name>PACES SOUTH FARMS</name><ExtendedData><Data name="locId"><value>82GA</value></Data></ExtendedData><Point><coordinates>-82.3852658333333,32.8087680555556</coordinates></Point></Placemark><Placemark><name>MIDVILLE INTL</name><ExtendedData><Data name="locId"><value>92GE</value></Data></ExtendedData><Point><coordinates>-82.27083333333331,32.845277777777795</coordinates></Point></Placemark><Placemark><name>MILLEN</name><ExtendedData><Data name="locId"><value>2J5</value></Data></ExtendedData><Point><coordinates>-81.96522222222221,32.8930277777778</coordinates></Point></Placemark><Placemark><name>LOUISVILLE MUNI</name><ExtendedData><Data name="locId"><value>2J3</value></Data></ExtendedData><Point><coordinates>-82.3848055555556,32.985944444444414</coordinates></Point></Placemark><Placemark><name>WASHINGTON/WILKES COUNTY</name><ExtendedData><Data name="locId"><value>IIY</value></Data></ExtendedData><Point><coordinates>-82.8144966666667,33.77859805555559</coordinates></Point></Placemark><Placemark><name>LINSCOTT</name><ExtendedData><Data name="locId"><value>9GE6</value></Data></ExtendedData><Point><coordinates>-82.65445,33.64616666666669</coordinates></Point></Placemark><Placemark><name>THOMSON/MCDUFFIE COUNTY</name><ExtendedData><Data name="locId"><value>HQU</value></Data></ExtendedData><Point><coordinates>-82.5169527777778,33.5297305555556</coordinates></Point></Placemark><Placemark><name>PRATER RANCH</name><ExtendedData><Data name="locId"><value>3GE8</value></Data></ExtendedData><Point><coordinates>-82.4790183333333,33.8434572222222</coordinates></Point></Placemark><Placemark><name>DANVILLE AIRPARK</name><ExtendedData><Data name="locId"><value>7GA4</value></Data></ExtendedData><Point><coordinates>-83.26765999999999,32.58098861111111</coordinates></Point></Placemark><Placemark><name>W H 'BUD' BARRON</name><ExtendedData><Data name="locId"><value>DBN</value></Data></ExtendedData><Point><coordinates>-82.98497222222221,32.5647222222222</coordinates></Point></Placemark><Placemark><name>FAIRVIEW PARK HOSPITAL</name><ExtendedData><Data name="locId"><value>48GA</value></Data></ExtendedData><Point><coordinates>-82.950475,32.53334444444441</coordinates></Point></Placemark><Placemark><name>CHINABERRY RANCH</name><ExtendedData><Data name="locId"><value>9GA8</value></Data></ExtendedData><Point><coordinates>-82.8988888888889,32.693611111111096</coordinates></Point></Placemark><Placemark><name>THE FARM</name><ExtendedData><Data name="locId"><value>01GE</value></Data></ExtendedData><Point><coordinates>-82.77099533333329,32.67515138888891</coordinates></Point></Placemark><Placemark><name>KAOLIN FLD</name><ExtendedData><Data name="locId"><value>OKZ</value></Data></ExtendedData><Point><coordinates>-82.8374886111111,32.966374722222184</coordinates></Point></Placemark><Placemark><name>CENTRAL STATE HOSPITAL</name><ExtendedData><Data name="locId"><value>6GA6</value></Data></ExtendedData><Point><coordinates>-83.2039916666667,33.02727777777781</coordinates></Point></Placemark><Placemark><name>BROOKLINE - MEADOWMERE</name><ExtendedData><Data name="locId"><value>9GA6</value></Data></ExtendedData><Point><coordinates>-83.4047222222222,33.09777777777779</coordinates></Point></Placemark><Placemark><name>BALDWIN COUNTY RGNL</name><ExtendedData><Data name="locId"><value>MLJ</value></Data></ExtendedData><Point><coordinates>-83.2414075,33.1542255555556</coordinates></Point></Placemark><Placemark><name>DEERFIELD LANDING</name><ExtendedData><Data name="locId"><value>9GA9</value></Data></ExtendedData><Point><coordinates>-83.31722222222218,33.21805555555558</coordinates></Point></Placemark><Placemark><name>WASHINGTON COUNTY RGNL MEDICAL CENTER</name><ExtendedData><Data name="locId"><value>58GA</value></Data></ExtendedData><Point><coordinates>-82.8046638888889,32.9965138888889</coordinates></Point></Placemark><Placemark><name>TAILWIND RANCH</name><ExtendedData><Data name="locId"><value>31GE</value></Data></ExtendedData><Point><coordinates>-83.4078090555556,32.81923988888893</coordinates></Point></Placemark><Placemark><name>SEBASTIAN COVE</name><ExtendedData><Data name="locId"><value>32GA</value></Data></ExtendedData><Point><coordinates>-83.2777777777778,33.45416666666668</coordinates></Point></Placemark><Placemark><name>RABBIT HOLE II</name><ExtendedData><Data name="locId"><value>GE92</value></Data></ExtendedData><Point><coordinates>-83.32055555555561,33.4997222222222</coordinates></Point></Placemark><Placemark><name>HAY FLD</name><ExtendedData><Data name="locId"><value>1GE7</value></Data></ExtendedData><Point><coordinates>-83.4397222222222,33.517222222222216</coordinates></Point></Placemark><Placemark><name>GREENE COUNTY RGNL</name><ExtendedData><Data name="locId"><value>CPP</value></Data></ExtendedData><Point><coordinates>-83.1382602777778,33.597970000000004</coordinates></Point></Placemark><Placemark><name>MADISON MUNI</name><ExtendedData><Data name="locId"><value>52A</value></Data></ExtendedData><Point><coordinates>-83.4604444444444,33.61212499999996</coordinates></Point></Placemark><Placemark><name>FITZGERALD MUNI</name><ExtendedData><Data name="locId"><value>FZG</value></Data></ExtendedData><Point><coordinates>-83.27090361111111,31.683904722222195</coordinates></Point></Placemark><Placemark><name>DORMINY MEDICAL CENTER</name><ExtendedData><Data name="locId"><value>9GA7</value></Data></ExtendedData><Point><coordinates>-83.26013333333331,31.696766666666704</coordinates></Point></Placemark><Placemark><name>ELITE HELICOPTERS</name><ExtendedData><Data name="locId"><value>GE14</value></Data></ExtendedData><Point><coordinates>-83.13224999999998,31.517744444444403</coordinates></Point></Placemark><Placemark><name>DOUGLAS MUNI</name><ExtendedData><Data name="locId"><value>DQH</value></Data></ExtendedData><Point><coordinates>-82.8605669444444,31.476738611111116</coordinates></Point></Placemark><Placemark><name>HAZLEHURST</name><ExtendedData><Data name="locId"><value>AZE</value></Data></ExtendedData><Point><coordinates>-82.6478911111111,31.88518999999998</coordinates></Point></Placemark><Placemark><name>POPE PATE FLD</name><ExtendedData><Data name="locId"><value>07GE</value></Data></ExtendedData><Point><coordinates>-83.2784895833333,31.555661666666694</coordinates></Point></Placemark><Placemark><name>COCHRAN</name><ExtendedData><Data name="locId"><value>48A</value></Data></ExtendedData><Point><coordinates>-83.2784063888889,32.40065805555558</coordinates></Point></Placemark><Placemark><name>WHITEHALL</name><ExtendedData><Data name="locId"><value>4GE3</value></Data></ExtendedData><Point><coordinates>-83.1832722222222,32.49933055555559</coordinates></Point></Placemark><Placemark><name>HEART OF GEORGIA RGNL</name><ExtendedData><Data name="locId"><value>EZM</value></Data></ExtendedData><Point><coordinates>-83.1286666666667,32.216388888888886</coordinates></Point></Placemark><Placemark><name>LT LANDING</name><ExtendedData><Data name="locId"><value>23GE</value></Data></ExtendedData><Point><coordinates>-83.1,32.3830555555556</coordinates></Point></Placemark><Placemark><name>DUKE STRIP 2</name><ExtendedData><Data name="locId"><value>GE26</value></Data></ExtendedData><Point><coordinates>-83.05972222222222,32.38166666666669</coordinates></Point></Placemark><Placemark><name>TELFAIR-WHEELER</name><ExtendedData><Data name="locId"><value>MQW</value></Data></ExtendedData><Point><coordinates>-82.8794116666667,32.09699638888888</coordinates></Point></Placemark><Placemark><name>PASO FINO FARM</name><ExtendedData><Data name="locId"><value>0GA8</value></Data></ExtendedData><Point><coordinates>-83.41599027777778,30.887141111111106</coordinates></Point></Placemark><Placemark><name>VALDOSTA RGNL</name><ExtendedData><Data name="locId"><value>VLD</value></Data></ExtendedData><Point><coordinates>-83.2759716666667,30.78146444444438</coordinates></Point></Placemark><Placemark><name>MALLORY FLD</name><ExtendedData><Data name="locId"><value>50GA</value></Data></ExtendedData><Point><coordinates>-83.23416666666668,30.950833333333293</coordinates></Point></Placemark><Placemark><name>ALYSSAS ANIMAL SANCTUARY AIR PARK</name><ExtendedData><Data name="locId"><value>7GA2</value></Data></ExtendedData><Point><coordinates>-83.2058333333333,30.777476388888914</coordinates></Point></Placemark><Placemark><name>CHRISTIANS FOLLY</name><ExtendedData><Data name="locId"><value>GE01</value></Data></ExtendedData><Point><coordinates>-83.0793444444444,30.930544444444394</coordinates></Point></Placemark><Placemark><name>HOMERVILLE</name><ExtendedData><Data name="locId"><value>HOE</value></Data></ExtendedData><Point><coordinates>-82.7752777777778,31.056888888888892</coordinates></Point></Placemark><Placemark><name>SOUTH GEORGIA MEDICAL CENTER</name><ExtendedData><Data name="locId"><value>54GA</value></Data></ExtendedData><Point><coordinates>-83.28509999999999,30.86170833333331</coordinates></Point></Placemark><Placemark><name>MOODY AFB</name><ExtendedData><Data name="locId"><value>VAD</value></Data></ExtendedData><Point><coordinates>-83.1929666666667,30.968702777777793</coordinates></Point></Placemark><Placemark><name>CRISP COUNTY-CORDELE</name><ExtendedData><Data name="locId"><value>CKF</value></Data></ExtendedData><Point><coordinates>-83.7739055555556,31.98884444444441</coordinates></Point></Placemark><Placemark><name>TURNER COUNTY</name><ExtendedData><Data name="locId"><value>75J</value></Data></ExtendedData><Point><coordinates>-83.6329444444444,31.687611111111096</coordinates></Point></Placemark><Placemark><name>RICHTER AIRPARK</name><ExtendedData><Data name="locId"><value>GE12</value></Data></ExtendedData><Point><coordinates>-83.5736111111111,31.748611111111074</coordinates></Point></Placemark><Placemark><name>AIR EVAC BASE 142</name><ExtendedData><Data name="locId"><value>GA34</value></Data></ExtendedData><Point><coordinates>-83.4786111111111,31.436111111111103</coordinates></Point></Placemark><Placemark><name>CRYSTAL LAKE AIRPARK</name><ExtendedData><Data name="locId"><value>0GE1</value></Data></ExtendedData><Point><coordinates>-83.4471055555556,31.66546111111107</coordinates></Point></Placemark><Placemark><name>AE154 BASE</name><ExtendedData><Data name="locId"><value>4GE7</value></Data></ExtendedData><Point><coordinates>-83.7102777777778,32.45833333333333</coordinates></Point></Placemark><Placemark><name>MOULTRIE MUNI</name><ExtendedData><Data name="locId"><value>MGR</value></Data></ExtendedData><Point><coordinates>-83.8028091666667,31.085579444444406</coordinates></Point></Placemark><Placemark><name>SPENCE</name><ExtendedData><Data name="locId"><value>MUL</value></Data></ExtendedData><Point><coordinates>-83.70405972222221,31.137686666666724</coordinates></Point></Placemark><Placemark><name>SUNBELT STRIP</name><ExtendedData><Data name="locId"><value>09GA</value></Data></ExtendedData><Point><coordinates>-83.6840583333333,31.111298333333295</coordinates></Point></Placemark><Placemark><name>SOUTH ONE TEN</name><ExtendedData><Data name="locId"><value>1GA8</value></Data></ExtendedData><Point><coordinates>-83.2265425,31.1785313888889</coordinates></Point></Placemark><Placemark><name>BERRIEN COUNTY</name><ExtendedData><Data name="locId"><value>4J2</value></Data></ExtendedData><Point><coordinates>-83.2252565555556,31.212544583333298</coordinates></Point></Placemark><Placemark><name>COOK COUNTY</name><ExtendedData><Data name="locId"><value>15J</value></Data></ExtendedData><Point><coordinates>-83.45422333333329,31.136757777777802</coordinates></Point></Placemark><Placemark><name>HAMILTON STRIP</name><ExtendedData><Data name="locId"><value>GA49</value></Data></ExtendedData><Point><coordinates>-83.6360555555556,31.2127361111111</coordinates></Point></Placemark><Placemark><name>BRIGGS FLD</name><ExtendedData><Data name="locId"><value>GA43</value></Data></ExtendedData><Point><coordinates>-81.4266666666667,32.32138888888889</coordinates></Point></Placemark><Placemark><name>CYPRESS LAKES</name><ExtendedData><Data name="locId"><value>GA35</value></Data></ExtendedData><Point><coordinates>-81.3966666666667,32.1575</coordinates></Point></Placemark><Placemark><name>BRIAR PATCH</name><ExtendedData><Data name="locId"><value>9GA1</value></Data></ExtendedData><Point><coordinates>-81.33694444444441,32.4488888888889</coordinates></Point></Placemark><Placemark><name>SWAIDS FLD</name><ExtendedData><Data name="locId"><value>2GA2</value></Data></ExtendedData><Point><coordinates>-81.2778028611111,32.392614944444404</coordinates></Point></Placemark><Placemark><name>HYUNDAI MOTOR GROUP METAPLANT AMERICA</name><ExtendedData><Data name="locId"><value>08GE</value></Data></ExtendedData><Point><coordinates>-81.454075,32.17012083333333</coordinates></Point></Placemark><Placemark><name>CAULEY'S AIRSTRIP</name><ExtendedData><Data name="locId"><value>3GA8</value></Data></ExtendedData><Point><coordinates>-82.635,32.32944444444438</coordinates></Point></Placemark><Placemark><name>HOLT AIRPARK</name><ExtendedData><Data name="locId"><value>13GE</value></Data></ExtendedData><Point><coordinates>-82.31805555555549,32.36083333333329</coordinates></Point></Placemark><Placemark><name>JOHN EDWIN JONES SR FLD/METTER MUNI</name><ExtendedData><Data name="locId"><value>MHP</value></Data></ExtendedData><Point><coordinates>-82.0814444444444,32.37397222222219</coordinates></Point></Placemark><Placemark><name>TREUTLEN COUNTY</name><ExtendedData><Data name="locId"><value>4J8</value></Data></ExtendedData><Point><coordinates>-82.56338888888891,32.38738888888888</coordinates></Point></Placemark><Placemark><name>CANDLER COUNTY HOSPITAL</name><ExtendedData><Data name="locId"><value>GA32</value></Data></ExtendedData><Point><coordinates>-82.0651444444444,32.40752777777779</coordinates></Point></Placemark><Placemark><name>SE GEORGIA HEALTH SYSTEM-BRUNSWICK</name><ExtendedData><Data name="locId"><value>GE24</value></Data></ExtendedData><Point><coordinates>-81.4851666666667,31.1754777777778</coordinates></Point></Placemark><Placemark><name>BRUNSWICK GOLDEN ISLES</name><ExtendedData><Data name="locId"><value>BQK</value></Data></ExtendedData><Point><coordinates>-81.46631638888888,31.259035277777798</coordinates></Point></Placemark><Placemark><name>PATTERSON ISLAND</name><ExtendedData><Data name="locId"><value>GA21</value></Data></ExtendedData><Point><coordinates>-81.3387094444444,31.461334166666703</coordinates></Point></Placemark><Placemark><name>EAGLE NECK</name><ExtendedData><Data name="locId"><value>1GA0</value></Data></ExtendedData><Point><coordinates>-81.3283333333333,31.6410347222222</coordinates></Point></Placemark><Placemark><name>SAPELO ISLAND</name><ExtendedData><Data name="locId"><value>08GA</value></Data></ExtendedData><Point><coordinates>-81.28592888888889,31.425780277777804</coordinates></Point></Placemark><Placemark><name>BARBOUR ISLAND</name><ExtendedData><Data name="locId"><value>72GA</value></Data></ExtendedData><Point><coordinates>-81.23315250000002,31.58355444444439</coordinates></Point></Placemark><Placemark><name>ST SIMONS ISLAND</name><ExtendedData><Data name="locId"><value>SSI</value></Data></ExtendedData><Point><coordinates>-81.3910597222222,31.151966388888894</coordinates></Point></Placemark><Placemark><name>HARVEST LAKE</name><ExtendedData><Data name="locId"><value>12GE</value></Data></ExtendedData><Point><coordinates>-81.3597222222222,31.730833333333308</coordinates></Point></Placemark><Placemark><name>WRIGHT AAF (FORT STEWART)/MIDCOAST RGNL</name><ExtendedData><Data name="locId"><value>LHW</value></Data></ExtendedData><Point><coordinates>-81.56265499999999,31.887819444444403</coordinates></Point></Placemark><Placemark><name>HODGES AIRPARK</name><ExtendedData><Data name="locId"><value>GA39</value></Data></ExtendedData><Point><coordinates>-81.2462222222222,31.9843747222222</coordinates></Point></Placemark><Placemark><name>ST JOSEPH'S HOSPITAL</name><ExtendedData><Data name="locId"><value>46GA</value></Data></ExtendedData><Point><coordinates>-81.1560611111111,31.984841666666668</coordinates></Point></Placemark><Placemark><name>MEML HOSPITAL</name><ExtendedData><Data name="locId"><value>GA37</value></Data></ExtendedData><Point><coordinates>-81.0885305555556,32.028930555555604</coordinates></Point></Placemark><Placemark><name>SAVANNAH/HILTON HEAD INTL</name><ExtendedData><Data name="locId"><value>SAV</value></Data></ExtendedData><Point><coordinates>-81.2021388888889,32.127583333333305</coordinates></Point></Placemark><Placemark><name>HEATH GREEN SKYRANCH</name><ExtendedData><Data name="locId"><value>GA19</value></Data></ExtendedData><Point><coordinates>-81.6875861111111,31.844830555555603</coordinates></Point></Placemark><Placemark><name>HUNTER AAF</name><ExtendedData><Data name="locId"><value>SVN</value></Data></ExtendedData><Point><coordinates>-81.1459877777778,32.010020277777784</coordinates></Point></Placemark><Placemark><name>CLAXTON-EVANS COUNTY</name><ExtendedData><Data name="locId"><value>CWV</value></Data></ExtendedData><Point><coordinates>-81.8693166666667,32.19505749999999</coordinates></Point></Placemark><Placemark><name>EAST GEORGIA RGNL MEDICAL CENTER</name><ExtendedData><Data name="locId"><value>GA28</value></Data></ExtendedData><Point><coordinates>-81.7689,32.413908333333296</coordinates></Point></Placemark><Placemark><name>SOUTHERN AG AVIATION</name><ExtendedData><Data name="locId"><value>1GA4</value></Data></ExtendedData><Point><coordinates>-81.7553894444444,32.32851888888891</coordinates></Point></Placemark><Placemark><name>AIR EVAC 95</name><ExtendedData><Data name="locId"><value>GA15</value></Data></ExtendedData><Point><coordinates>-81.7515861111111,32.39215833333327</coordinates></Point></Placemark><Placemark><name>STATESBORO-BULLOCH COUNTY</name><ExtendedData><Data name="locId"><value>TBR</value></Data></ExtendedData><Point><coordinates>-81.7369444444444,32.48275000000004</coordinates></Point></Placemark><Placemark><name>AUBREY'S AIRPARK</name><ExtendedData><Data name="locId"><value>2GA7</value></Data></ExtendedData><Point><coordinates>-81.6224444444444,32.498194444444394</coordinates></Point></Placemark><Placemark><name>DAYSTAR STRIP</name><ExtendedData><Data name="locId"><value>1GE6</value></Data></ExtendedData><Point><coordinates>-82.1234519444444,31.37243888888888</coordinates></Point></Placemark><Placemark><name>BRANTLEY COUNTY</name><ExtendedData><Data name="locId"><value>4J1</value></Data></ExtendedData><Point><coordinates>-81.9059861111111,31.206068888888908</coordinates></Point></Placemark><Placemark><name>WAYNE MEML HOSPITAL</name><ExtendedData><Data name="locId"><value>39GA</value></Data></ExtendedData><Point><coordinates>-81.89852777777782,31.601380555555608</coordinates></Point></Placemark><Placemark><name>JESUP-WAYNE COUNTY</name><ExtendedData><Data name="locId"><value>JES</value></Data></ExtendedData><Point><coordinates>-81.8825177777778,31.5539633333333</coordinates></Point></Placemark><Placemark><name>WAYCROSS-WARE COUNTY</name><ExtendedData><Data name="locId"><value>AYS</value></Data></ExtendedData><Point><coordinates>-82.3953888888889,31.24838888888891</coordinates></Point></Placemark><Placemark><name>MEML SATILLA HEALTH</name><ExtendedData><Data name="locId"><value>GA60</value></Data></ExtendedData><Point><coordinates>-82.3476111111111,31.224199999999996</coordinates></Point></Placemark><Placemark><name>BIVINS</name><ExtendedData><Data name="locId"><value>GA47</value></Data></ExtendedData><Point><coordinates>-82.2734575,31.185220833333275</coordinates></Point></Placemark><Placemark><name>BACON COUNTY</name><ExtendedData><Data name="locId"><value>AMG</value></Data></ExtendedData><Point><coordinates>-82.5065533333333,31.536057777777813</coordinates></Point></Placemark><Placemark><name>OKEFENOKEE</name><ExtendedData><Data name="locId"><value>3GE1</value></Data></ExtendedData><Point><coordinates>-82.1282694444444,30.736955555555596</coordinates></Point></Placemark><Placemark><name>DAVIS FLD</name><ExtendedData><Data name="locId"><value>3J6</value></Data></ExtendedData><Point><coordinates>-82.0281666666667,30.796361111111096</coordinates></Point></Placemark><Placemark><name>STAFFORD</name><ExtendedData><Data name="locId"><value>GA20</value></Data></ExtendedData><Point><coordinates>-81.4627777777778,30.811111111111103</coordinates></Point></Placemark><Placemark><name>JEKYLL ISLAND</name><ExtendedData><Data name="locId"><value>09J</value></Data></ExtendedData><Point><coordinates>-81.4277777777778,31.074472222222198</coordinates></Point></Placemark><Placemark><name>READDICK FLD</name><ExtendedData><Data name="locId"><value>GA36</value></Data></ExtendedData><Point><coordinates>-81.7166527777778,30.766890277777804</coordinates></Point></Placemark><Placemark><name>HIGH POINT</name><ExtendedData><Data name="locId"><value>GA46</value></Data></ExtendedData><Point><coordinates>-81.4325555555556,30.927000000000007</coordinates></Point></Placemark><Placemark><name>BAXLEY MUNI</name><ExtendedData><Data name="locId"><value>BHC</value></Data></ExtendedData><Point><coordinates>-82.3937777777778,31.71383333333327</coordinates></Point></Placemark><Placemark><name>APPLING GENERAL HOSPITAL</name><ExtendedData><Data name="locId"><value>GA78</value></Data></ExtendedData><Point><coordinates>-82.34983055555558,31.769466666666673</coordinates></Point></Placemark><Placemark><name>SWINTON SMITH FLD AT REIDSVILLE MUNI</name><ExtendedData><Data name="locId"><value>RVJ</value></Data></ExtendedData><Point><coordinates>-82.15357666666671,32.0594872222222</coordinates></Point></Placemark><Placemark><name>VIDALIA RGNL</name><ExtendedData><Data name="locId"><value>VDI</value></Data></ExtendedData><Point><coordinates>-82.37116666666671,32.192722222222216</coordinates></Point></Placemark><Placemark><name>SIKES FARM</name><ExtendedData><Data name="locId"><value>8GA5</value></Data></ExtendedData><Point><coordinates>-82.1313888888889,32.22277777777779</coordinates></Point></Placemark><Placemark><name>LEFTY'S LANDING</name><ExtendedData><Data name="locId"><value>18GE</value></Data></ExtendedData><Point><coordinates>-82.4676825,32.045507</coordinates></Point></Placemark><Placemark><name>WESTBROOK</name><ExtendedData><Data name="locId"><value>63GE</value></Data></ExtendedData><Point><coordinates>-84.74006388888891,32.04735833333331</coordinates></Point></Placemark><Placemark><name>ARK</name><ExtendedData><Data name="locId"><value>05GA</value></Data></ExtendedData><Point><coordinates>-84.7144444444445,32.07138888888889</coordinates></Point></Placemark><Placemark><name>MEDICAL CENTER</name><ExtendedData><Data name="locId"><value>01GA</value></Data></ExtendedData><Point><coordinates>-84.9803166666667,32.48120277777781</coordinates></Point></Placemark><Placemark><name>COLUMBUS</name><ExtendedData><Data name="locId"><value>CSG</value></Data></ExtendedData><Point><coordinates>-84.93887027777781,32.5163275</coordinates></Point></Placemark><Placemark><name>LAWSON AAF (FORT BENNING)</name><ExtendedData><Data name="locId"><value>LSF</value></Data></ExtendedData><Point><coordinates>-84.9871522222222,32.331780555555625</coordinates></Point></Placemark><Placemark><name>LOWELL FLD</name><ExtendedData><Data name="locId"><value>9GA5</value></Data></ExtendedData><Point><coordinates>-84.2901888888889,32.058218611111116</coordinates></Point></Placemark><Placemark><name>PHOEBE SUMTER</name><ExtendedData><Data name="locId"><value>1GA7</value></Data></ExtendedData><Point><coordinates>-84.255,32.067499999999995</coordinates></Point></Placemark><Placemark><name>PETERSON FLD</name><ExtendedData><Data name="locId"><value>4GA5</value></Data></ExtendedData><Point><coordinates>-84.37251,32.08866166666668</coordinates></Point></Placemark><Placemark><name>JIMMY CARTER RGNL</name><ExtendedData><Data name="locId"><value>ACJ</value></Data></ExtendedData><Point><coordinates>-84.1888611111111,32.1108055555556</coordinates></Point></Placemark><Placemark><name>MARION COUNTY</name><ExtendedData><Data name="locId"><value>82A</value></Data></ExtendedData><Point><coordinates>-84.5036944444444,32.2828055555556</coordinates></Point></Placemark><Placemark><name>HODGES FLD</name><ExtendedData><Data name="locId"><value>4GA0</value></Data></ExtendedData><Point><coordinates>-84.1299666666667,32.12348611111109</coordinates></Point></Placemark><Placemark><name>AIR EVAC BASE 86</name><ExtendedData><Data name="locId"><value>GA07</value></Data></ExtendedData><Point><coordinates>-84.2530333333333,32.066872222222216</coordinates></Point></Placemark><Placemark><name>PINEBLOOM PLANTATION</name><ExtendedData><Data name="locId"><value>GA14</value></Data></ExtendedData><Point><coordinates>-84.3226869444444,31.40295500000002</coordinates></Point></Placemark><Placemark><name>SOUTHWEST GEORGIA RGNL</name><ExtendedData><Data name="locId"><value>ABY</value></Data></ExtendedData><Point><coordinates>-84.19448333333328,31.535529999999994</coordinates></Point></Placemark><Placemark><name>VIRGIL</name><ExtendedData><Data name="locId"><value>2GE6</value></Data></ExtendedData><Point><coordinates>-84.4231583333333,31.595399999999998</coordinates></Point></Placemark><Placemark><name>DAWSON MUNI</name><ExtendedData><Data name="locId"><value>16J</value></Data></ExtendedData><Point><coordinates>-84.41929138888891,31.743288055555595</coordinates></Point></Placemark><Placemark><name>LEESBURG SPRAYING</name><ExtendedData><Data name="locId"><value>8GA3</value></Data></ExtendedData><Point><coordinates>-84.1256777777778,31.768730555555592</coordinates></Point></Placemark><Placemark><name>PHOEBE PUTNEY MEML HOSPITAL</name><ExtendedData><Data name="locId"><value>3GE9</value></Data></ExtendedData><Point><coordinates>-84.15750555555559,31.591666666666697</coordinates></Point></Placemark><Placemark><name>GRAND OAK PLANTATION</name><ExtendedData><Data name="locId"><value>1GA6</value></Data></ExtendedData><Point><coordinates>-84.3108805555556,31.725252777777797</coordinates></Point></Placemark><Placemark><name>HAWKINSVILLE-PULASKI COUNTY</name><ExtendedData><Data name="locId"><value>51A</value></Data></ExtendedData><Point><coordinates>-83.43797222222219,32.283666666666704</coordinates></Point></Placemark><Placemark><name>DR C P SAVAGE SR</name><ExtendedData><Data name="locId"><value>53A</value></Data></ExtendedData><Point><coordinates>-84.0074680555555,32.30306333333331</coordinates></Point></Placemark><Placemark><name>BECKLEY FARMS</name><ExtendedData><Data name="locId"><value>1GE4</value></Data></ExtendedData><Point><coordinates>-83.9333333333333,32.5011111111111</coordinates></Point></Placemark><Placemark><name>PERRY-HOUSTON COUNTY</name><ExtendedData><Data name="locId"><value>PXE</value></Data></ExtendedData><Point><coordinates>-83.7673458333333,32.51058083333331</coordinates></Point></Placemark><Placemark><name>GUARDIAN CENTERS OF GEORGIA</name><ExtendedData><Data name="locId"><value>GA97</value></Data></ExtendedData><Point><coordinates>-83.7498194444444,32.5030083333333</coordinates></Point></Placemark><Placemark><name>THOMAS RIDGE</name><ExtendedData><Data name="locId"><value>3GA7</value></Data></ExtendedData><Point><coordinates>-84.2491805555556,32.45083333333329</coordinates></Point></Placemark><Placemark><name>OAK RIDGE PLANTATION</name><ExtendedData><Data name="locId"><value>13GA</value></Data></ExtendedData><Point><coordinates>-83.7548966666667,31.366571944444402</coordinates></Point></Placemark><Placemark><name>HENRY TIFT MYERS</name><ExtendedData><Data name="locId"><value>TMA</value></Data></ExtendedData><Point><coordinates>-83.48922222222218,31.42955555555561</coordinates></Point></Placemark><Placemark><name>SYLVESTER</name><ExtendedData><Data name="locId"><value>SYV</value></Data></ExtendedData><Point><coordinates>-83.8940363888889,31.557154722222194</coordinates></Point></Placemark><Placemark><name>S&amp;S FLYING SERVICE</name><ExtendedData><Data name="locId"><value>44GA</value></Data></ExtendedData><Point><coordinates>-83.4829461111111,32.1043375</coordinates></Point></Placemark><Placemark><name>RONEY FARMS</name><ExtendedData><Data name="locId"><value>5GA6</value></Data></ExtendedData><Point><coordinates>-83.8612883333333,32.14988750000002</coordinates></Point></Placemark><Placemark><name>EVERIDGE</name><ExtendedData><Data name="locId"><value>47GA</value></Data></ExtendedData><Point><coordinates>-83.8552777777778,32.2197222222222</coordinates></Point></Placemark><Placemark><name>BROCK AIRPARK</name><ExtendedData><Data name="locId"><value>83GA</value></Data></ExtendedData><Point><coordinates>-84.5061111111111,30.999722222222204</coordinates></Point></Placemark><Placemark><name>ANDERSON</name><ExtendedData><Data name="locId"><value>GE21</value></Data></ExtendedData><Point><coordinates>-84.39547222222221,31.01984722222221</coordinates></Point></Placemark><Placemark><name>VADA</name><ExtendedData><Data name="locId"><value>GA42</value></Data></ExtendedData><Point><coordinates>-84.393375,31.072469444444422</coordinates></Point></Placemark><Placemark><name>CAMILLA-MITCHELL COUNTY</name><ExtendedData><Data name="locId"><value>CXU</value></Data></ExtendedData><Point><coordinates>-84.2352222222222,31.213166666666694</coordinates></Point></Placemark><Placemark><name>DONALSONVILLE MUNI</name><ExtendedData><Data name="locId"><value>17J</value></Data></ExtendedData><Point><coordinates>-84.8776366666667,31.006507222222197</coordinates></Point></Placemark><Placemark><name>DECATUR COUNTY INDUSTRIAL AIR PARK</name><ExtendedData><Data name="locId"><value>BGE</value></Data></ExtendedData><Point><coordinates>-84.6369278055556,30.97159808333329</coordinates></Point></Placemark><Placemark><name>MEML HOSPITAL</name><ExtendedData><Data name="locId"><value>4GA3</value></Data></ExtendedData><Point><coordinates>-84.55314444444441,30.90356388888891</coordinates></Point></Placemark><Placemark><name>VIOLA FARM</name><ExtendedData><Data name="locId"><value>4GE1</value></Data></ExtendedData><Point><coordinates>-84.54111111111109,30.72374999999998</coordinates></Point></Placemark><Placemark><name>CAIRO-GRADY COUNTY</name><ExtendedData><Data name="locId"><value>70J</value></Data></ExtendedData><Point><coordinates>-84.15472222222219,30.887972222222217</coordinates></Point></Placemark><Placemark><name>QUITMAN BROOKS COUNTY</name><ExtendedData><Data name="locId"><value>4J5</value></Data></ExtendedData><Point><coordinates>-83.5890683333333,30.805185833333297</coordinates></Point></Placemark><Placemark><name>THOMASVILLE RGNL</name><ExtendedData><Data name="locId"><value>TVI</value></Data></ExtendedData><Point><coordinates>-83.88144444444441,30.90147222222221</coordinates></Point></Placemark><Placemark><name>EARLY COUNTY</name><ExtendedData><Data name="locId"><value>BIJ</value></Data></ExtendedData><Point><coordinates>-84.8947977777778,31.39750861111112</coordinates></Point></Placemark><Placemark><name>JORDANS</name><ExtendedData><Data name="locId"><value>GA22</value></Data></ExtendedData><Point><coordinates>-84.7082513888889,31.438508611111132</coordinates></Point></Placemark><Placemark><name>SAWYER FARM</name><ExtendedData><Data name="locId"><value>66GA</value></Data></ExtendedData><Point><coordinates>-85.0027777777778,31.474722222222184</coordinates></Point></Placemark><Placemark><name>COATES</name><ExtendedData><Data name="locId"><value>79GA</value></Data></ExtendedData><Point><coordinates>-85.0165938888889,31.491282499999997</coordinates></Point></Placemark><Placemark><name>RANDOLPH COUNTY</name><ExtendedData><Data name="locId"><value>25J</value></Data></ExtendedData><Point><coordinates>-84.8270067222222,31.701867277777794</coordinates></Point></Placemark><Placemark><name>YOUNG FLD</name><ExtendedData><Data name="locId"><value>9GA3</value></Data></ExtendedData><Point><coordinates>-84.48158277777779,31.839609166666705</coordinates></Point></Placemark><Placemark><name>ANDREWS</name><ExtendedData><Data name="locId"><value>4GA8</value></Data></ExtendedData><Point><coordinates>-84.7129738888889,31.415453888888905</coordinates></Point></Placemark></Document></kml>